[
  {
    "name": "les Escaldes",
    "lat": 42.50729,
    "lon": 1.53414,
    "country": "Andorra"
  },
  {
    "name": "Andorra la Vella",
    "lat": 42.50779,
    "lon": 1.52109,
    "country": "Andorra"
  },
  {
    "name": "War\u012bs\u0101n",
    "lat": 25.16744,
    "lon": 55.40708,
    "country": "United Arab Emirates"
  },
  {
    "name": "Umm Suqaym",
    "lat": 25.15491,
    "lon": 55.21015,
    "country": "United Arab Emirates"
  },
  {
    "name": "Umm Al Quwain City",
    "lat": 25.56473,
    "lon": 55.55517,
    "country": "United Arab Emirates"
  },
  {
    "name": "Ar R\u0101shid\u012byah",
    "lat": 25.22499,
    "lon": 55.38947,
    "country": "United Arab Emirates"
  },
  {
    "name": "Ras Al Khaimah City",
    "lat": 25.78953,
    "lon": 55.9432,
    "country": "United Arab Emirates"
  },
  {
    "name": "Zayed City",
    "lat": 23.65416,
    "lon": 53.70522,
    "country": "United Arab Emirates"
  },
  {
    "name": "Khawr Fakk\u0101n",
    "lat": 25.33132,
    "lon": 56.34199,
    "country": "United Arab Emirates"
  },
  {
    "name": "Kalb\u0101",
    "lat": 25.0513,
    "lon": 56.35422,
    "country": "United Arab Emirates"
  },
  {
    "name": "Jumayr\u0101",
    "lat": 25.20795,
    "lon": 55.24969,
    "country": "United Arab Emirates"
  },
  {
    "name": "Dubai",
    "lat": 25.07725,
    "lon": 55.30927,
    "country": "United Arab Emirates"
  },
  {
    "name": "Dibba Al-Fujairah",
    "lat": 25.59246,
    "lon": 56.26176,
    "country": "United Arab Emirates"
  },
  {
    "name": "Dibba Al-Hisn",
    "lat": 25.61955,
    "lon": 56.27291,
    "country": "United Arab Emirates"
  },
  {
    "name": "Dayrah",
    "lat": 25.27143,
    "lon": 55.30207,
    "country": "United Arab Emirates"
  },
  {
    "name": "Sharjah",
    "lat": 25.33737,
    "lon": 55.41206,
    "country": "United Arab Emirates"
  },
  {
    "name": "Ar Ruways",
    "lat": 24.11028,
    "lon": 52.73056,
    "country": "United Arab Emirates"
  },
  {
    "name": "\u1e28att\u0101",
    "lat": 24.80073,
    "lon": 56.12726,
    "country": "United Arab Emirates"
  },
  {
    "name": "Al Fujairah City",
    "lat": 25.11641,
    "lon": 56.34141,
    "country": "United Arab Emirates"
  },
  {
    "name": "Al Ain City",
    "lat": 24.19167,
    "lon": 55.76056,
    "country": "United Arab Emirates"
  },
  {
    "name": "Ajman City",
    "lat": 25.40177,
    "lon": 55.47878,
    "country": "United Arab Emirates"
  },
  {
    "name": "Adh Dhayd",
    "lat": 25.28812,
    "lon": 55.88157,
    "country": "United Arab Emirates"
  },
  {
    "name": "Abu Dhabi",
    "lat": 24.45118,
    "lon": 54.39696,
    "country": "United Arab Emirates"
  },
  {
    "name": "Ab\u016b Hayl",
    "lat": 25.28413,
    "lon": 55.33153,
    "country": "United Arab Emirates"
  },
  {
    "name": "As Sa\u0163wah",
    "lat": 25.22192,
    "lon": 55.27459,
    "country": "United Arab Emirates"
  },
  {
    "name": "Al \u1e28am\u012bd\u012byah",
    "lat": 25.40001,
    "lon": 55.52925,
    "country": "United Arab Emirates"
  },
  {
    "name": "Al Waheda",
    "lat": 25.29173,
    "lon": 55.33822,
    "country": "United Arab Emirates"
  },
  {
    "name": "Al Karama",
    "lat": 25.24004,
    "lon": 55.30106,
    "country": "United Arab Emirates"
  },
  {
    "name": "The Palm Jumeirah",
    "lat": 25.11607,
    "lon": 55.13506,
    "country": "United Arab Emirates"
  },
  {
    "name": "Bur Dubai",
    "lat": 25.26038,
    "lon": 55.29891,
    "country": "United Arab Emirates"
  },
  {
    "name": "Khalifah A City",
    "lat": 24.42588,
    "lon": 54.605,
    "country": "United Arab Emirates"
  },
  {
    "name": "Mirdif",
    "lat": 25.22443,
    "lon": 55.41412,
    "country": "United Arab Emirates"
  },
  {
    "name": "Hawr al \u2018Anz",
    "lat": 25.27744,
    "lon": 55.33675,
    "country": "United Arab Emirates"
  },
  {
    "name": "Mankh\u016bl",
    "lat": 25.24612,
    "lon": 55.29222,
    "country": "United Arab Emirates"
  },
  {
    "name": "N\u0101yf",
    "lat": 25.27139,
    "lon": 55.30323,
    "country": "United Arab Emirates"
  },
  {
    "name": "Al Murar al Qad\u012bm",
    "lat": 25.27576,
    "lon": 55.30738,
    "country": "United Arab Emirates"
  },
  {
    "name": "Al Warqaa",
    "lat": 25.19272,
    "lon": 55.42013,
    "country": "United Arab Emirates"
  },
  {
    "name": "International City",
    "lat": 25.16383,
    "lon": 55.40987,
    "country": "United Arab Emirates"
  },
  {
    "name": "Dubai Marina",
    "lat": 25.08525,
    "lon": 55.14646,
    "country": "United Arab Emirates"
  },
  {
    "name": "Dubai Internet City",
    "lat": 25.09538,
    "lon": 55.16171,
    "country": "United Arab Emirates"
  },
  {
    "name": "Al Safa",
    "lat": 25.17047,
    "lon": 55.23336,
    "country": "United Arab Emirates"
  },
  {
    "name": "Ar Rumaylah",
    "lat": 25.40338,
    "lon": 55.4334,
    "country": "United Arab Emirates"
  },
  {
    "name": "Al Jurf",
    "lat": 25.41814,
    "lon": 55.50791,
    "country": "United Arab Emirates"
  },
  {
    "name": "Al Majaz",
    "lat": 25.32354,
    "lon": 55.38774,
    "country": "United Arab Emirates"
  },
  {
    "name": "Dubai Festival City",
    "lat": 25.22177,
    "lon": 55.35733,
    "country": "United Arab Emirates"
  },
  {
    "name": "Dubai International Financial Centre",
    "lat": 25.2106,
    "lon": 55.27787,
    "country": "United Arab Emirates"
  },
  {
    "name": "Dubai Investments Park",
    "lat": 25.00827,
    "lon": 55.15682,
    "country": "United Arab Emirates"
  },
  {
    "name": "Jebel Ali",
    "lat": 25.00255,
    "lon": 55.10811,
    "country": "United Arab Emirates"
  },
  {
    "name": "Bani Yas City",
    "lat": 24.30978,
    "lon": 54.62944,
    "country": "United Arab Emirates"
  },
  {
    "name": "Musaffah",
    "lat": 24.35893,
    "lon": 54.48267,
    "country": "United Arab Emirates"
  },
  {
    "name": "Al Shamkhah City",
    "lat": 24.39268,
    "lon": 54.70779,
    "country": "United Arab Emirates"
  },
  {
    "name": "Reef Al Fujairah City",
    "lat": 25.14479,
    "lon": 56.24764,
    "country": "United Arab Emirates"
  },
  {
    "name": "Al Bada'a",
    "lat": 25.22462,
    "lon": 55.26888,
    "country": "United Arab Emirates"
  },
  {
    "name": "Al Muteena",
    "lat": 25.27375,
    "lon": 55.32265,
    "country": "United Arab Emirates"
  },
  {
    "name": "Al Mizhar First",
    "lat": 25.24805,
    "lon": 55.44128,
    "country": "United Arab Emirates"
  },
  {
    "name": "Dubai Silicon Oasis",
    "lat": 25.11985,
    "lon": 55.38718,
    "country": "United Arab Emirates"
  },
  {
    "name": "Al Furjan",
    "lat": 25.02651,
    "lon": 55.14565,
    "country": "United Arab Emirates"
  },
  {
    "name": "Business Bay",
    "lat": 25.18544,
    "lon": 55.26969,
    "country": "United Arab Emirates"
  },
  {
    "name": "Al Qusais 1",
    "lat": 25.27925,
    "lon": 55.36995,
    "country": "United Arab Emirates"
  },
  {
    "name": "Halwan",
    "lat": 25.34586,
    "lon": 55.42165,
    "country": "United Arab Emirates"
  },
  {
    "name": "Al Sajaah",
    "lat": 25.31532,
    "lon": 55.63211,
    "country": "United Arab Emirates"
  },
  {
    "name": "Lahbab",
    "lat": 25.03763,
    "lon": 55.59135,
    "country": "United Arab Emirates"
  },
  {
    "name": "Mohammed Bin Zayed City",
    "lat": 24.34794,
    "lon": 54.55368,
    "country": "United Arab Emirates"
  },
  {
    "name": "Zaranj",
    "lat": 30.95962,
    "lon": 61.86037,
    "country": "Afghanistan"
  },
  {
    "name": "B\u0101z\u0101r-e Yak\u0101wlang",
    "lat": 34.73525,
    "lon": 66.97379,
    "country": "Afghanistan"
  },
  {
    "name": "Taloqan",
    "lat": 36.73605,
    "lon": 69.53451,
    "country": "Afghanistan"
  },
  {
    "name": "Sh\u012bn\u1e0fan\u1e0f",
    "lat": 33.30294,
    "lon": 62.1474,
    "country": "Afghanistan"
  },
  {
    "name": "Shibirgh\u0101n",
    "lat": 36.66757,
    "lon": 65.7529,
    "country": "Afghanistan"
  },
  {
    "name": "Shahrak",
    "lat": 34.10737,
    "lon": 64.3052,
    "country": "Afghanistan"
  },
  {
    "name": "Sar-e Pul",
    "lat": 36.21544,
    "lon": 65.93249,
    "country": "Afghanistan"
  },
  {
    "name": "Sang-e Ch\u0101rak",
    "lat": 35.84972,
    "lon": 66.43694,
    "country": "Afghanistan"
  },
  {
    "name": "A\u012bbak",
    "lat": 36.26468,
    "lon": 68.01551,
    "country": "Afghanistan"
  },
  {
    "name": "Rust\u0101q",
    "lat": 37.12604,
    "lon": 69.83045,
    "country": "Afghanistan"
  },
  {
    "name": "Qarq\u012bn",
    "lat": 37.41853,
    "lon": 66.04358,
    "country": "Afghanistan"
  },
  {
    "name": "Qar\u0101wul",
    "lat": 37.21959,
    "lon": 68.7802,
    "country": "Afghanistan"
  },
  {
    "name": "Pul-e Khumr\u012b",
    "lat": 35.94458,
    "lon": 68.71512,
    "country": "Afghanistan"
  },
  {
    "name": "Paghm\u0101n",
    "lat": 34.58787,
    "lon": 68.95091,
    "country": "Afghanistan"
  },
  {
    "name": "N\u012bl\u012b",
    "lat": 33.72178,
    "lon": 66.13023,
    "country": "Afghanistan"
  },
  {
    "name": "Nahr\u012bn",
    "lat": 36.0649,
    "lon": 69.13343,
    "country": "Afghanistan"
  },
  {
    "name": "Maymana",
    "lat": 35.92139,
    "lon": 64.78361,
    "country": "Afghanistan"
  },
  {
    "name": "Mehtar L\u0101m",
    "lat": 34.67139,
    "lon": 70.20944,
    "country": "Afghanistan"
  },
  {
    "name": "Maz\u0101r-e Shar\u012bf",
    "lat": 36.70904,
    "lon": 67.11087,
    "country": "Afghanistan"
  },
  {
    "name": "Lashkar G\u0101h",
    "lat": 31.59382,
    "lon": 64.37161,
    "country": "Afghanistan"
  },
  {
    "name": "Kushk",
    "lat": 33.29565,
    "lon": 61.95221,
    "country": "Afghanistan"
  },
  {
    "name": "Kunduz",
    "lat": 36.72895,
    "lon": 68.857,
    "country": "Afghanistan"
  },
  {
    "name": "Kh\u014dst",
    "lat": 33.33951,
    "lon": 69.92041,
    "country": "Afghanistan"
  },
  {
    "name": "Khulm",
    "lat": 36.69736,
    "lon": 67.69826,
    "country": "Afghanistan"
  },
  {
    "name": "Kh\u0101sh",
    "lat": 31.52919,
    "lon": 62.79055,
    "country": "Afghanistan"
  },
  {
    "name": "Kh\u0101n Nesh\u012bn",
    "lat": 30.5488,
    "lon": 63.7888,
    "country": "Afghanistan"
  },
  {
    "name": "Khanabad",
    "lat": 36.68304,
    "lon": 69.11279,
    "country": "Afghanistan"
  },
  {
    "name": "Karukh",
    "lat": 34.48108,
    "lon": 62.5863,
    "country": "Afghanistan"
  },
  {
    "name": "Kandah\u0101r",
    "lat": 31.61332,
    "lon": 65.71013,
    "country": "Afghanistan"
  },
  {
    "name": "Kabul",
    "lat": 34.52813,
    "lon": 69.17233,
    "country": "Afghanistan"
  },
  {
    "name": "Jal\u0101l\u0101b\u0101d",
    "lat": 34.42647,
    "lon": 70.45153,
    "country": "Afghanistan"
  },
  {
    "name": "Jabal os Saraj",
    "lat": 35.11833,
    "lon": 69.23778,
    "country": "Afghanistan"
  },
  {
    "name": "Her\u0101t",
    "lat": 34.34817,
    "lon": 62.19967,
    "country": "Afghanistan"
  },
  {
    "name": "Ghormach",
    "lat": 35.73062,
    "lon": 63.78264,
    "country": "Afghanistan"
  },
  {
    "name": "Ghazni",
    "lat": 33.55391,
    "lon": 68.42096,
    "country": "Afghanistan"
  },
  {
    "name": "Gereshk",
    "lat": 31.82089,
    "lon": 64.57005,
    "country": "Afghanistan"
  },
  {
    "name": "Gardez",
    "lat": 33.59744,
    "lon": 69.22592,
    "country": "Afghanistan"
  },
  {
    "name": "Fayzabad",
    "lat": 37.11664,
    "lon": 70.58002,
    "country": "Afghanistan"
  },
  {
    "name": "Farah",
    "lat": 32.37451,
    "lon": 62.11638,
    "country": "Afghanistan"
  },
  {
    "name": "Eslam Qaleh",
    "lat": 34.66667,
    "lon": 61.06667,
    "country": "Afghanistan"
  },
  {
    "name": "Charikar",
    "lat": 35.01361,
    "lon": 69.17139,
    "country": "Afghanistan"
  },
  {
    "name": "Baraki Barak",
    "lat": 33.96744,
    "lon": 68.9492,
    "country": "Afghanistan"
  },
  {
    "name": "B\u0101my\u0101n",
    "lat": 34.82156,
    "lon": 67.82734,
    "country": "Afghanistan"
  },
  {
    "name": "Balkh",
    "lat": 36.75635,
    "lon": 66.8972,
    "country": "Afghanistan"
  },
  {
    "name": "Baghl\u0101n",
    "lat": 36.13068,
    "lon": 68.70829,
    "country": "Afghanistan"
  },
  {
    "name": "\u0100rt Khw\u0101jah",
    "lat": 37.08571,
    "lon": 69.47958,
    "country": "Afghanistan"
  },
  {
    "name": "\u0100sm\u0101r",
    "lat": 35.03333,
    "lon": 71.35809,
    "country": "Afghanistan"
  },
  {
    "name": "Asad\u0101b\u0101d",
    "lat": 34.87311,
    "lon": 71.14697,
    "country": "Afghanistan"
  },
  {
    "name": "Andkh\u014dy",
    "lat": 36.95293,
    "lon": 65.12376,
    "country": "Afghanistan"
  },
  {
    "name": "B\u0101z\u0101rak",
    "lat": 35.31292,
    "lon": 69.51519,
    "country": "Afghanistan"
  },
  {
    "name": "Markaz-e Woluswal\u012b-ye \u0100ch\u012bn",
    "lat": 34.12583,
    "lon": 70.70778,
    "country": "Afghanistan"
  },
  {
    "name": "Saint John\u2019s",
    "lat": 17.12096,
    "lon": -61.84329,
    "country": "Antigua and Barbuda"
  },
  {
    "name": "The Valley",
    "lat": 18.21704,
    "lon": -63.05783,
    "country": "Anguilla"
  },
  {
    "name": "Sarand\u00eb",
    "lat": 39.87534,
    "lon": 20.00477,
    "country": "Albania"
  },
  {
    "name": "Pogradec",
    "lat": 40.9025,
    "lon": 20.6525,
    "country": "Albania"
  },
  {
    "name": "Kuk\u00ebs",
    "lat": 42.07694,
    "lon": 20.42194,
    "country": "Albania"
  },
  {
    "name": "Kor\u00e7\u00eb",
    "lat": 40.61861,
    "lon": 20.78083,
    "country": "Albania"
  },
  {
    "name": "Gjirokast\u00ebr",
    "lat": 40.07583,
    "lon": 20.13889,
    "country": "Albania"
  },
  {
    "name": "Elbasan",
    "lat": 41.1125,
    "lon": 20.08222,
    "country": "Albania"
  },
  {
    "name": "Burrel",
    "lat": 41.61028,
    "lon": 20.00889,
    "country": "Albania"
  },
  {
    "name": "Vlor\u00eb",
    "lat": 40.4686,
    "lon": 19.48318,
    "country": "Albania"
  },
  {
    "name": "Tirana",
    "lat": 41.3275,
    "lon": 19.81889,
    "country": "Albania"
  },
  {
    "name": "Shkod\u00ebr",
    "lat": 42.06828,
    "lon": 19.51258,
    "country": "Albania"
  },
  {
    "name": "Patos Fshat",
    "lat": 40.64278,
    "lon": 19.65083,
    "country": "Albania"
  },
  {
    "name": "Patos",
    "lat": 40.68333,
    "lon": 19.61944,
    "country": "Albania"
  },
  {
    "name": "Lushnj\u00eb",
    "lat": 40.94194,
    "lon": 19.705,
    "country": "Albania"
  },
  {
    "name": "Lezh\u00eb",
    "lat": 41.78361,
    "lon": 19.64361,
    "country": "Albania"
  },
  {
    "name": "La\u00e7",
    "lat": 41.63556,
    "lon": 19.71306,
    "country": "Albania"
  },
  {
    "name": "Kruj\u00eb",
    "lat": 41.50917,
    "lon": 19.79278,
    "country": "Albania"
  },
  {
    "name": "Kavaj\u00eb",
    "lat": 41.18556,
    "lon": 19.55694,
    "country": "Albania"
  },
  {
    "name": "Fier-\u00c7if\u00e7i",
    "lat": 40.71667,
    "lon": 19.56667,
    "country": "Albania"
  },
  {
    "name": "Fier",
    "lat": 40.72389,
    "lon": 19.55611,
    "country": "Albania"
  },
  {
    "name": "Durr\u00ebs",
    "lat": 41.32355,
    "lon": 19.45469,
    "country": "Albania"
  },
  {
    "name": "Berat",
    "lat": 40.70583,
    "lon": 19.95222,
    "country": "Albania"
  },
  {
    "name": "Kapan",
    "lat": 39.20755,
    "lon": 46.40576,
    "country": "Armenia"
  },
  {
    "name": "Goris",
    "lat": 39.51111,
    "lon": 46.34168,
    "country": "Armenia"
  },
  {
    "name": "Artashat",
    "lat": 39.95484,
    "lon": 44.54874,
    "country": "Armenia"
  },
  {
    "name": "Ararat",
    "lat": 39.85494,
    "lon": 44.6947,
    "country": "Armenia"
  },
  {
    "name": "Yerevan",
    "lat": 40.18111,
    "lon": 44.51361,
    "country": "Armenia"
  },
  {
    "name": "Vagharshapat",
    "lat": 40.16557,
    "lon": 44.29462,
    "country": "Armenia"
  },
  {
    "name": "Sevan",
    "lat": 40.5473,
    "lon": 44.94171,
    "country": "Armenia"
  },
  {
    "name": "Masis",
    "lat": 40.06595,
    "lon": 44.43669,
    "country": "Armenia"
  },
  {
    "name": "Vanadzor",
    "lat": 40.80456,
    "lon": 44.4939,
    "country": "Armenia"
  },
  {
    "name": "Gavar",
    "lat": 40.35398,
    "lon": 45.12386,
    "country": "Armenia"
  },
  {
    "name": "Ijevan",
    "lat": 40.87877,
    "lon": 45.14851,
    "country": "Armenia"
  },
  {
    "name": "Hrazdan",
    "lat": 40.5169,
    "lon": 44.75591,
    "country": "Armenia"
  },
  {
    "name": "Armavir",
    "lat": 40.15446,
    "lon": 44.03815,
    "country": "Armenia"
  },
  {
    "name": "Gyumri",
    "lat": 40.7942,
    "lon": 43.84528,
    "country": "Armenia"
  },
  {
    "name": "Dilijan",
    "lat": 40.74037,
    "lon": 44.86344,
    "country": "Armenia"
  },
  {
    "name": "Davtashen",
    "lat": 40.21642,
    "lon": 44.48088,
    "country": "Armenia"
  },
  {
    "name": "Charentsavan",
    "lat": 40.40289,
    "lon": 44.64447,
    "country": "Armenia"
  },
  {
    "name": "Avan",
    "lat": 40.21436,
    "lon": 44.57846,
    "country": "Armenia"
  },
  {
    "name": "Ashtarak",
    "lat": 40.2991,
    "lon": 44.36204,
    "country": "Armenia"
  },
  {
    "name": "Artik",
    "lat": 40.61918,
    "lon": 43.97207,
    "country": "Armenia"
  },
  {
    "name": "Abovyan",
    "lat": 40.27368,
    "lon": 44.63348,
    "country": "Armenia"
  },
  {
    "name": "Erebuni",
    "lat": 40.13309,
    "lon": 44.53009,
    "country": "Armenia"
  },
  {
    "name": "Nor Nork",
    "lat": 40.19661,
    "lon": 44.5669,
    "country": "Armenia"
  },
  {
    "name": "Ajapnyak",
    "lat": 40.19917,
    "lon": 44.47056,
    "country": "Armenia"
  },
  {
    "name": "Kanaker-Zeytun",
    "lat": 40.22,
    "lon": 44.53833,
    "country": "Armenia"
  },
  {
    "name": "Malatia-Sebastia",
    "lat": 40.17396,
    "lon": 44.4457,
    "country": "Armenia"
  },
  {
    "name": "Kentron",
    "lat": 40.17806,
    "lon": 44.51303,
    "country": "Armenia"
  },
  {
    "name": "Shengavit",
    "lat": 40.1557,
    "lon": 44.4779,
    "country": "Armenia"
  },
  {
    "name": "Arabkir",
    "lat": 40.20624,
    "lon": 44.50365,
    "country": "Armenia"
  },
  {
    "name": "Saurimo",
    "lat": -9.66078,
    "lon": 20.39155,
    "country": "Angola"
  },
  {
    "name": "Lucapa",
    "lat": -8.41915,
    "lon": 20.74466,
    "country": "Angola"
  },
  {
    "name": "Dundo",
    "lat": -7.36643,
    "lon": 20.81557,
    "country": "Angola"
  },
  {
    "name": "Chitato",
    "lat": -7.3,
    "lon": 20.73333,
    "country": "Angola"
  },
  {
    "name": "Cassanguidi",
    "lat": -7.48367,
    "lon": 21.30339,
    "country": "Angola"
  },
  {
    "name": "Lumbala",
    "lat": -14.10165,
    "lon": 21.43531,
    "country": "Angola"
  },
  {
    "name": "Luau",
    "lat": -10.70727,
    "lon": 22.22466,
    "country": "Angola"
  },
  {
    "name": "Cazombo",
    "lat": -11.89355,
    "lon": 22.9024,
    "country": "Angola"
  },
  {
    "name": "Nzagi",
    "lat": -8.38549,
    "lon": 15.30126,
    "country": "Angola"
  },
  {
    "name": "U\u00edge",
    "lat": -7.60874,
    "lon": 15.06131,
    "country": "Angola"
  },
  {
    "name": "Tomb\u00f4co",
    "lat": -6.80517,
    "lon": 13.33017,
    "country": "Angola"
  },
  {
    "name": "Soyo",
    "lat": -6.1349,
    "lon": 12.36894,
    "country": "Angola"
  },
  {
    "name": "Songo",
    "lat": -7.35207,
    "lon": 14.84629,
    "country": "Angola"
  },
  {
    "name": "Sanza Pombo",
    "lat": -7.31473,
    "lon": 16.0024,
    "country": "Angola"
  },
  {
    "name": "Ambrizette",
    "lat": -7.23116,
    "lon": 12.8666,
    "country": "Angola"
  },
  {
    "name": "Negage",
    "lat": -7.75938,
    "lon": 15.2722,
    "country": "Angola"
  },
  {
    "name": "N'dalatando",
    "lat": -9.29782,
    "lon": 14.91162,
    "country": "Angola"
  },
  {
    "name": "Mussende",
    "lat": -9.95,
    "lon": 14.8,
    "country": "Angola"
  },
  {
    "name": "Mbanza Kongo",
    "lat": -6.26667,
    "lon": 14.23833,
    "country": "Angola"
  },
  {
    "name": "Maquela do Zombo",
    "lat": -6.05716,
    "lon": 15.10971,
    "country": "Angola"
  },
  {
    "name": "Malanje",
    "lat": -9.54015,
    "lon": 16.34096,
    "country": "Angola"
  },
  {
    "name": "Lucala",
    "lat": -9.27268,
    "lon": 15.25206,
    "country": "Angola"
  },
  {
    "name": "Lubalo",
    "lat": -9.15445,
    "lon": 19.28136,
    "country": "Angola"
  },
  {
    "name": "Luanda",
    "lat": -8.83682,
    "lon": 13.23432,
    "country": "Angola"
  },
  {
    "name": "Cunda di\u00e1 Baze",
    "lat": -8.90769,
    "lon": 17.05339,
    "country": "Angola"
  },
  {
    "name": "Golungo Alto",
    "lat": -9.13333,
    "lon": 14.76667,
    "country": "Angola"
  },
  {
    "name": "Dondo",
    "lat": -9.68456,
    "lon": 14.42788,
    "country": "Angola"
  },
  {
    "name": "Dondo",
    "lat": -9.05,
    "lon": 15.31667,
    "country": "Angola"
  },
  {
    "name": "Cu\u00edmba",
    "lat": -6.12085,
    "lon": 14.62086,
    "country": "Angola"
  },
  {
    "name": "Cuilo",
    "lat": -8.23619,
    "lon": 19.52566,
    "country": "Angola"
  },
  {
    "name": "Cuango-Luzamba",
    "lat": -9.14583,
    "lon": 18.04453,
    "country": "Angola"
  },
  {
    "name": "Cazombo",
    "lat": -8.73204,
    "lon": 15.37124,
    "country": "Angola"
  },
  {
    "name": "Caxito",
    "lat": -8.57848,
    "lon": 13.66425,
    "country": "Angola"
  },
  {
    "name": "Cangandala",
    "lat": -9.78333,
    "lon": 16.43333,
    "country": "Angola"
  },
  {
    "name": "Camabatela",
    "lat": -8.18812,
    "lon": 15.37495,
    "country": "Angola"
  },
  {
    "name": "Cacuso",
    "lat": -9.42102,
    "lon": 15.74668,
    "country": "Angola"
  },
  {
    "name": "Cabinda",
    "lat": -5.56717,
    "lon": 12.19787,
    "country": "Angola"
  },
  {
    "name": "Buco Zau",
    "lat": -4.76667,
    "lon": 12.55,
    "country": "Angola"
  },
  {
    "name": "Belize",
    "lat": -4.65,
    "lon": 12.76667,
    "country": "Angola"
  },
  {
    "name": "Barra do Dande",
    "lat": -8.47175,
    "lon": 13.37011,
    "country": "Angola"
  },
  {
    "name": "Bailundo",
    "lat": -9.57499,
    "lon": 15.99442,
    "country": "Angola"
  },
  {
    "name": "Gama",
    "lat": -8.5675,
    "lon": 13.47639,
    "country": "Angola"
  },
  {
    "name": "Xangongo",
    "lat": -16.7444,
    "lon": 14.97494,
    "country": "Angola"
  },
  {
    "name": "Alto Hama",
    "lat": -12.23333,
    "lon": 15.55,
    "country": "Angola"
  },
  {
    "name": "Virei",
    "lat": -15.727,
    "lon": 12.94961,
    "country": "Angola"
  },
  {
    "name": "Ucuma",
    "lat": -12.96121,
    "lon": 15.05958,
    "country": "Angola"
  },
  {
    "name": "Ucu Seles",
    "lat": -11.41237,
    "lon": 14.30663,
    "country": "Angola"
  },
  {
    "name": "T\u00f4mbua",
    "lat": -15.80394,
    "lon": 11.84485,
    "country": "Angola"
  },
  {
    "name": "Sumbe",
    "lat": -11.20605,
    "lon": 13.84371,
    "country": "Angola"
  },
  {
    "name": "Quipungo",
    "lat": -14.81909,
    "lon": 14.53504,
    "country": "Angola"
  },
  {
    "name": "Quibala",
    "lat": -10.73366,
    "lon": 14.97995,
    "country": "Angola"
  },
  {
    "name": "Porto Amboim",
    "lat": -10.73251,
    "lon": 13.76844,
    "country": "Angola"
  },
  {
    "name": "Ondjiva",
    "lat": -17.06667,
    "lon": 15.73333,
    "country": "Angola"
  },
  {
    "name": "Nhar\u00eaa",
    "lat": -11.47512,
    "lon": 16.96496,
    "country": "Angola"
  },
  {
    "name": "Mossamedes",
    "lat": -15.19611,
    "lon": 12.15222,
    "country": "Angola"
  },
  {
    "name": "Mungo",
    "lat": -11.83268,
    "lon": 16.23613,
    "country": "Angola"
  },
  {
    "name": "Menongue",
    "lat": -14.6585,
    "lon": 17.69099,
    "country": "Angola"
  },
  {
    "name": "Matala",
    "lat": -14.73272,
    "lon": 15.03479,
    "country": "Angola"
  },
  {
    "name": "Luquembo",
    "lat": -10.73912,
    "lon": 17.71766,
    "country": "Angola"
  },
  {
    "name": "Luena",
    "lat": -11.78333,
    "lon": 19.91667,
    "country": "Angola"
  },
  {
    "name": "Lubango",
    "lat": -14.91717,
    "lon": 13.4925,
    "country": "Angola"
  },
  {
    "name": "Longonjo",
    "lat": -12.90795,
    "lon": 15.24845,
    "country": "Angola"
  },
  {
    "name": "Londuimbali",
    "lat": -12.23712,
    "lon": 15.31697,
    "country": "Angola"
  },
  {
    "name": "Lobito",
    "lat": -12.3644,
    "lon": 13.53601,
    "country": "Angola"
  },
  {
    "name": "Cu\u00edto",
    "lat": -12.38333,
    "lon": 16.93333,
    "country": "Angola"
  },
  {
    "name": "Catchiungo",
    "lat": -12.56598,
    "lon": 16.22589,
    "country": "Angola"
  },
  {
    "name": "Huambo",
    "lat": -12.77611,
    "lon": 15.73917,
    "country": "Angola"
  },
  {
    "name": "Ganda",
    "lat": -13.01592,
    "lon": 14.63502,
    "country": "Angola"
  },
  {
    "name": "Gabela",
    "lat": -10.85147,
    "lon": 14.37993,
    "country": "Angola"
  },
  {
    "name": "Dombe Grande",
    "lat": -12.95167,
    "lon": 13.1025,
    "country": "Angola"
  },
  {
    "name": "Cuemba",
    "lat": -12.15,
    "lon": 18.08333,
    "country": "Angola"
  },
  {
    "name": "Cubal",
    "lat": -13.03865,
    "lon": 14.2455,
    "country": "Angola"
  },
  {
    "name": "Conda",
    "lat": -11.10862,
    "lon": 14.33621,
    "country": "Angola"
  },
  {
    "name": "Chitembo",
    "lat": -13.55,
    "lon": 16.63333,
    "country": "Angola"
  },
  {
    "name": "Chinguar",
    "lat": -12.55708,
    "lon": 16.33805,
    "country": "Angola"
  },
  {
    "name": "Cela",
    "lat": -11.42173,
    "lon": 15.12345,
    "country": "Angola"
  },
  {
    "name": "Catumbela",
    "lat": -12.43002,
    "lon": 13.54677,
    "country": "Angola"
  },
  {
    "name": "Catabola",
    "lat": -12.15,
    "lon": 17.28333,
    "country": "Angola"
  },
  {
    "name": "Capunda",
    "lat": -11.13333,
    "lon": 14.46667,
    "country": "Angola"
  },
  {
    "name": "Camucuio",
    "lat": -14.11667,
    "lon": 13.25,
    "country": "Angola"
  },
  {
    "name": "Cambundi Catembo",
    "lat": -10.07531,
    "lon": 17.55058,
    "country": "Angola"
  },
  {
    "name": "Camacupa",
    "lat": -12.01667,
    "lon": 17.48333,
    "country": "Angola"
  },
  {
    "name": "Caluquembe",
    "lat": -13.86667,
    "lon": 14.43333,
    "country": "Angola"
  },
  {
    "name": "Calulo",
    "lat": -10.00055,
    "lon": 14.89519,
    "country": "Angola"
  },
  {
    "name": "Ca\u00e1la",
    "lat": -12.8525,
    "lon": 15.56056,
    "country": "Angola"
  },
  {
    "name": "Bocoio",
    "lat": -12.47017,
    "lon": 14.13688,
    "country": "Angola"
  },
  {
    "name": "Benguela",
    "lat": -12.57674,
    "lon": 13.40268,
    "country": "Angola"
  },
  {
    "name": "Balombo",
    "lat": -12.35426,
    "lon": 14.77232,
    "country": "Angola"
  },
  {
    "name": "Ba\u00eda Farta",
    "lat": -12.60417,
    "lon": 13.19667,
    "country": "Angola"
  },
  {
    "name": "Andulo",
    "lat": -11.48676,
    "lon": 16.69663,
    "country": "Angola"
  },
  {
    "name": "Cambundi",
    "lat": -7.46856,
    "lon": 17.03769,
    "country": "Angola"
  },
  {
    "name": "Cafunfo",
    "lat": -8.7672,
    "lon": 17.99572,
    "country": "Angola"
  },
  {
    "name": "Santa Clara",
    "lat": -10.19156,
    "lon": 15.43408,
    "country": "Angola"
  },
  {
    "name": "Quissecula",
    "lat": -11.39223,
    "lon": 15.09201,
    "country": "Angola"
  },
  {
    "name": "Cambundi",
    "lat": -10.89481,
    "lon": 17.76402,
    "country": "Angola"
  },
  {
    "name": "Z\u00e1rate",
    "lat": -34.09584,
    "lon": -59.02423,
    "country": "Argentina"
  },
  {
    "name": "Colonia Wanda",
    "lat": -25.97337,
    "lon": -54.56304,
    "country": "Argentina"
  },
  {
    "name": "Villa Ort\u00fazar",
    "lat": -34.57973,
    "lon": -58.46829,
    "country": "Argentina"
  },
  {
    "name": "Villa Ocampo",
    "lat": -28.48689,
    "lon": -59.35423,
    "country": "Argentina"
  },
  {
    "name": "Villa Lugano",
    "lat": -34.67907,
    "lon": -58.47263,
    "country": "Argentina"
  },
  {
    "name": "Villaguay",
    "lat": -31.86767,
    "lon": -59.02701,
    "country": "Argentina"
  },
  {
    "name": "Villa Gesell",
    "lat": -37.26394,
    "lon": -56.97304,
    "country": "Argentina"
  },
  {
    "name": "Villa de Mayo",
    "lat": -34.5108,
    "lon": -58.68059,
    "country": "Argentina"
  },
  {
    "name": "Tortuguitas",
    "lat": -34.47513,
    "lon": -58.75367,
    "country": "Argentina"
  },
  {
    "name": "Tigre",
    "lat": -34.42603,
    "lon": -58.57962,
    "country": "Argentina"
  },
  {
    "name": "Tandil",
    "lat": -37.3287,
    "lon": -59.1369,
    "country": "Argentina"
  },
  {
    "name": "San Vicente",
    "lat": -26.61667,
    "lon": -54.13333,
    "country": "Argentina"
  },
  {
    "name": "Santo Tom\u00e9",
    "lat": -28.55104,
    "lon": -56.04125,
    "country": "Argentina"
  },
  {
    "name": "Santos Lugares",
    "lat": -34.60306,
    "lon": -58.54074,
    "country": "Argentina"
  },
  {
    "name": "Santa Elena",
    "lat": -30.94432,
    "lon": -59.78832,
    "country": "Argentina"
  },
  {
    "name": "San Pedro",
    "lat": -33.67918,
    "lon": -59.66633,
    "country": "Argentina"
  },
  {
    "name": "San Pedro",
    "lat": -26.6218,
    "lon": -54.10902,
    "country": "Argentina"
  },
  {
    "name": "San Luis del Palmar",
    "lat": -27.50766,
    "lon": -58.55625,
    "country": "Argentina"
  },
  {
    "name": "San Lorenzo",
    "lat": -28.13442,
    "lon": -58.76685,
    "country": "Argentina"
  },
  {
    "name": "San Javier",
    "lat": -30.57781,
    "lon": -59.9317,
    "country": "Argentina"
  },
  {
    "name": "San Isidro",
    "lat": -34.46971,
    "lon": -58.52111,
    "country": "Argentina"
  },
  {
    "name": "San Antonio de Padua",
    "lat": -34.66267,
    "lon": -58.69819,
    "country": "Argentina"
  },
  {
    "name": "Saladas",
    "lat": -28.25504,
    "lon": -58.62386,
    "country": "Argentina"
  },
  {
    "name": "Retiro",
    "lat": -34.58333,
    "lon": -58.38333,
    "country": "Argentina"
  },
  {
    "name": "Resistencia",
    "lat": -27.46056,
    "lon": -58.98389,
    "country": "Argentina"
  },
  {
    "name": "Reconquista",
    "lat": -29.15,
    "lon": -59.65,
    "country": "Argentina"
  },
  {
    "name": "Quilmes",
    "lat": -34.72065,
    "lon": -58.25454,
    "country": "Argentina"
  },
  {
    "name": "Puerto Rico",
    "lat": -26.8089,
    "lon": -55.02147,
    "country": "Argentina"
  },
  {
    "name": "Puerto Iguaz\u00fa",
    "lat": -25.59912,
    "lon": -54.57355,
    "country": "Argentina"
  },
  {
    "name": "Puerto Esperanza",
    "lat": -26.02267,
    "lon": -54.61356,
    "country": "Argentina"
  },
  {
    "name": "Puerto Eldorado",
    "lat": -26.40843,
    "lon": -54.69463,
    "country": "Argentina"
  },
  {
    "name": "Posadas",
    "lat": -27.36708,
    "lon": -55.89608,
    "country": "Argentina"
  },
  {
    "name": "Pontevedra",
    "lat": -34.74947,
    "lon": -58.70158,
    "country": "Argentina"
  },
  {
    "name": "Piran\u00e9",
    "lat": -25.73271,
    "lon": -59.10989,
    "country": "Argentina"
  },
  {
    "name": "Pilar",
    "lat": -34.45867,
    "lon": -58.91398,
    "country": "Argentina"
  },
  {
    "name": "Paso de los Libres",
    "lat": -29.71251,
    "lon": -57.08771,
    "country": "Argentina"
  },
  {
    "name": "Ober\u00e1",
    "lat": -27.48683,
    "lon": -55.11994,
    "country": "Argentina"
  },
  {
    "name": "Necochea",
    "lat": -38.5545,
    "lon": -58.73961,
    "country": "Argentina"
  },
  {
    "name": "Mu\u00f1iz",
    "lat": -34.55622,
    "lon": -58.70739,
    "country": "Argentina"
  },
  {
    "name": "Mor\u00f3n",
    "lat": -34.65118,
    "lon": -58.62205,
    "country": "Argentina"
  },
  {
    "name": "Monte Caseros",
    "lat": -30.2518,
    "lon": -57.63537,
    "country": "Argentina"
  },
  {
    "name": "Montecarlo",
    "lat": -26.56849,
    "lon": -54.7579,
    "country": "Argentina"
  },
  {
    "name": "Merlo",
    "lat": -34.66536,
    "lon": -58.72744,
    "country": "Argentina"
  },
  {
    "name": "Mercedes",
    "lat": -34.65072,
    "lon": -59.43143,
    "country": "Argentina"
  },
  {
    "name": "Mercedes",
    "lat": -29.18416,
    "lon": -58.07519,
    "country": "Argentina"
  },
  {
    "name": "Haedo",
    "lat": -34.64239,
    "lon": -58.59212,
    "country": "Argentina"
  },
  {
    "name": "Mar del Plata",
    "lat": -38.00042,
    "lon": -57.5562,
    "country": "Argentina"
  },
  {
    "name": "Luj\u00e1n",
    "lat": -34.5664,
    "lon": -59.11478,
    "country": "Argentina"
  },
  {
    "name": "Los Polvorines",
    "lat": -34.50316,
    "lon": -58.70596,
    "country": "Argentina"
  },
  {
    "name": "La Plata",
    "lat": -34.92145,
    "lon": -57.95453,
    "country": "Argentina"
  },
  {
    "name": "La Paz",
    "lat": -30.74179,
    "lon": -59.64517,
    "country": "Argentina"
  },
  {
    "name": "Jard\u00edn Am\u00e9rica",
    "lat": -27.04346,
    "lon": -55.22698,
    "country": "Argentina"
  },
  {
    "name": "Ituzaing\u00f3",
    "lat": -27.58504,
    "lon": -56.68707,
    "country": "Argentina"
  },
  {
    "name": "Hurlingham",
    "lat": -34.5904,
    "lon": -58.62904,
    "country": "Argentina"
  },
  {
    "name": "Gualeguaych\u00fa",
    "lat": -33.00777,
    "lon": -58.51836,
    "country": "Argentina"
  },
  {
    "name": "Gualeguay",
    "lat": -33.14091,
    "lon": -59.31257,
    "country": "Argentina"
  },
  {
    "name": "Goya",
    "lat": -29.13995,
    "lon": -59.26343,
    "country": "Argentina"
  },
  {
    "name": "Gobernador Virasora",
    "lat": -28.05,
    "lon": -56.03333,
    "country": "Argentina"
  },
  {
    "name": "General Pacheco",
    "lat": -34.45256,
    "lon": -58.64312,
    "country": "Argentina"
  },
  {
    "name": "General Jos\u00e9 de San Mart\u00edn",
    "lat": -26.53643,
    "lon": -59.34138,
    "country": "Argentina"
  },
  {
    "name": "Garup\u00e1",
    "lat": -27.48315,
    "lon": -55.82924,
    "country": "Argentina"
  },
  {
    "name": "Formosa",
    "lat": -26.18489,
    "lon": -58.17313,
    "country": "Argentina"
  },
  {
    "name": "Fontana",
    "lat": -27.42039,
    "lon": -59.03731,
    "country": "Argentina"
  },
  {
    "name": "Federal",
    "lat": -30.95619,
    "lon": -58.7797,
    "country": "Argentina"
  },
  {
    "name": "Esquina",
    "lat": -30.01476,
    "lon": -59.5289,
    "country": "Argentina"
  },
  {
    "name": "El Soberbio",
    "lat": -27.29662,
    "lon": -54.19811,
    "country": "Argentina"
  },
  {
    "name": "El Palomar",
    "lat": -34.61771,
    "lon": -58.60153,
    "country": "Argentina"
  },
  {
    "name": "Don Torcuato",
    "lat": -34.49459,
    "lon": -58.62729,
    "country": "Argentina"
  },
  {
    "name": "Dolores",
    "lat": -36.31539,
    "lon": -57.67546,
    "country": "Argentina"
  },
  {
    "name": "Curuz\u00fa Cuati\u00e1",
    "lat": -29.79145,
    "lon": -58.0499,
    "country": "Argentina"
  },
  {
    "name": "Corrientes",
    "lat": -27.46784,
    "lon": -58.8344,
    "country": "Argentina"
  },
  {
    "name": "Concordia",
    "lat": -31.39195,
    "lon": -58.01706,
    "country": "Argentina"
  },
  {
    "name": "Concepci\u00f3n del Uruguay",
    "lat": -32.48463,
    "lon": -58.23217,
    "country": "Argentina"
  },
  {
    "name": "Colegiales",
    "lat": -34.57365,
    "lon": -58.44924,
    "country": "Argentina"
  },
  {
    "name": "Chajar\u00ed",
    "lat": -30.75482,
    "lon": -57.98196,
    "country": "Argentina"
  },
  {
    "name": "Castelar",
    "lat": -34.65142,
    "lon": -58.64074,
    "country": "Argentina"
  },
  {
    "name": "Campana",
    "lat": -34.16327,
    "lon": -58.95919,
    "country": "Argentina"
  },
  {
    "name": "Buenos Aires",
    "lat": -34.61315,
    "lon": -58.37723,
    "country": "Argentina"
  },
  {
    "name": "Boedo",
    "lat": -34.63333,
    "lon": -58.41667,
    "country": "Argentina"
  },
  {
    "name": "Berazategui",
    "lat": -34.76531,
    "lon": -58.21278,
    "country": "Argentina"
  },
  {
    "name": "Bella Vista",
    "lat": -34.5651,
    "lon": -58.69034,
    "country": "Argentina"
  },
  {
    "name": "Belgrano",
    "lat": -34.5627,
    "lon": -58.45829,
    "country": "Argentina"
  },
  {
    "name": "Barranqueras",
    "lat": -27.48132,
    "lon": -58.93925,
    "country": "Argentina"
  },
  {
    "name": "Barracas",
    "lat": -34.64966,
    "lon": -58.38341,
    "country": "Argentina"
  },
  {
    "name": "Balcarce",
    "lat": -37.84638,
    "lon": -58.25549,
    "country": "Argentina"
  },
  {
    "name": "Azul",
    "lat": -36.77803,
    "lon": -59.85848,
    "country": "Argentina"
  },
  {
    "name": "Avellaneda",
    "lat": -29.11761,
    "lon": -59.65834,
    "country": "Argentina"
  },
  {
    "name": "Arist\u00f3bulo del Valle",
    "lat": -27.09571,
    "lon": -54.89344,
    "country": "Argentina"
  },
  {
    "name": "Zapala",
    "lat": -38.90056,
    "lon": -70.06674,
    "country": "Argentina"
  },
  {
    "name": "Yerba Buena",
    "lat": -26.81298,
    "lon": -65.29543,
    "country": "Argentina"
  },
  {
    "name": "Villa Regina",
    "lat": -39.09631,
    "lon": -67.08374,
    "country": "Argentina"
  },
  {
    "name": "Villa Paula de Sarmiento",
    "lat": -31.4933,
    "lon": -68.53838,
    "country": "Argentina"
  },
  {
    "name": "Villa Nueva",
    "lat": -32.43289,
    "lon": -63.24811,
    "country": "Argentina"
  },
  {
    "name": "Villa Mar\u00eda",
    "lat": -32.40751,
    "lon": -63.24016,
    "country": "Argentina"
  },
  {
    "name": "Villa Dolores",
    "lat": -31.94504,
    "lon": -65.19025,
    "country": "Argentina"
  },
  {
    "name": "Villa Constituci\u00f3n",
    "lat": -33.22778,
    "lon": -60.3297,
    "country": "Argentina"
  },
  {
    "name": "Villa Carlos Paz",
    "lat": -31.4183,
    "lon": -64.49008,
    "country": "Argentina"
  },
  {
    "name": "Villa \u00c1ngela",
    "lat": -27.57679,
    "lon": -60.71114,
    "country": "Argentina"
  },
  {
    "name": "Villa Allende",
    "lat": -31.29368,
    "lon": -64.2977,
    "country": "Argentina"
  },
  {
    "name": "Viedma",
    "lat": -40.81345,
    "lon": -62.99668,
    "country": "Argentina"
  },
  {
    "name": "Victoria",
    "lat": -32.61841,
    "lon": -60.15478,
    "country": "Argentina"
  },
  {
    "name": "Vera",
    "lat": -29.4593,
    "lon": -60.21261,
    "country": "Argentina"
  },
  {
    "name": "Venado Tuerto",
    "lat": -33.74556,
    "lon": -61.96885,
    "country": "Argentina"
  },
  {
    "name": "Veinticinco de Mayo",
    "lat": -35.43247,
    "lon": -60.17156,
    "country": "Argentina"
  },
  {
    "name": "Ushuaia",
    "lat": -54.81084,
    "lon": -68.31591,
    "country": "Argentina"
  },
  {
    "name": "Unquillo",
    "lat": -31.23717,
    "lon": -64.31176,
    "country": "Argentina"
  },
  {
    "name": "Tres Isletas",
    "lat": -26.34067,
    "lon": -60.43207,
    "country": "Argentina"
  },
  {
    "name": "Tres Arroyos",
    "lat": -38.37694,
    "lon": -60.27563,
    "country": "Argentina"
  },
  {
    "name": "Trelew",
    "lat": -43.24895,
    "lon": -65.30505,
    "country": "Argentina"
  },
  {
    "name": "Termas de R\u00edo Hondo",
    "lat": -27.49362,
    "lon": -64.85972,
    "country": "Argentina"
  },
  {
    "name": "Tartagal",
    "lat": -22.51682,
    "lon": -63.8056,
    "country": "Argentina"
  },
  {
    "name": "Taf\u00ed Viejo",
    "lat": -26.7333,
    "lon": -65.26146,
    "country": "Argentina"
  },
  {
    "name": "Sunchales",
    "lat": -30.94404,
    "lon": -61.56148,
    "country": "Argentina"
  },
  {
    "name": "Santo Tom\u00e9",
    "lat": -31.66274,
    "lon": -60.7653,
    "country": "Argentina"
  },
  {
    "name": "Santiago del Estero",
    "lat": -27.79511,
    "lon": -64.26149,
    "country": "Argentina"
  },
  {
    "name": "Santa Rosa",
    "lat": -36.61667,
    "lon": -64.28333,
    "country": "Argentina"
  },
  {
    "name": "Santa Luc\u00eda",
    "lat": -31.54055,
    "lon": -68.49794,
    "country": "Argentina"
  },
  {
    "name": "Santa Fe",
    "lat": -31.64881,
    "lon": -60.70868,
    "country": "Argentina"
  },
  {
    "name": "San Salvador de Jujuy",
    "lat": -24.19457,
    "lon": -65.29712,
    "country": "Argentina"
  },
  {
    "name": "San Ram\u00f3n de la Nueva Or\u00e1n",
    "lat": -23.13705,
    "lon": -64.32426,
    "country": "Argentina"
  },
  {
    "name": "San Rafael",
    "lat": -34.61531,
    "lon": -68.33238,
    "country": "Argentina"
  },
  {
    "name": "San Pedro de Jujuy",
    "lat": -24.23127,
    "lon": -64.86614,
    "country": "Argentina"
  },
  {
    "name": "San Nicol\u00e1s de los Arroyos",
    "lat": -33.33425,
    "lon": -60.2108,
    "country": "Argentina"
  },
  {
    "name": "San Miguel de Tucum\u00e1n",
    "lat": -26.82414,
    "lon": -65.2226,
    "country": "Argentina"
  },
  {
    "name": "San Mart\u00edn de los Andes",
    "lat": -40.15789,
    "lon": -71.35337,
    "country": "Argentina"
  },
  {
    "name": "San Mart\u00edn",
    "lat": -33.08338,
    "lon": -68.47312,
    "country": "Argentina"
  },
  {
    "name": "San Luis",
    "lat": -33.29501,
    "lon": -66.33563,
    "country": "Argentina"
  },
  {
    "name": "San Justo",
    "lat": -30.78913,
    "lon": -60.59189,
    "country": "Argentina"
  },
  {
    "name": "San Juan",
    "lat": -31.5375,
    "lon": -68.53639,
    "country": "Argentina"
  },
  {
    "name": "San Jos\u00e9 de J\u00e1chal",
    "lat": -30.24162,
    "lon": -68.74662,
    "country": "Argentina"
  },
  {
    "name": "San Jorge",
    "lat": -31.89618,
    "lon": -61.85984,
    "country": "Argentina"
  },
  {
    "name": "San Francisco",
    "lat": -31.42497,
    "lon": -62.08404,
    "country": "Argentina"
  },
  {
    "name": "Catamarca",
    "lat": -28.46957,
    "lon": -65.78524,
    "country": "Argentina"
  },
  {
    "name": "San Antonio Oeste",
    "lat": -40.73193,
    "lon": -64.94769,
    "country": "Argentina"
  },
  {
    "name": "Salta",
    "lat": -24.7859,
    "lon": -65.41166,
    "country": "Argentina"
  },
  {
    "name": "Rufino",
    "lat": -34.26827,
    "lon": -62.71262,
    "country": "Argentina"
  },
  {
    "name": "Rosario",
    "lat": -32.94682,
    "lon": -60.63932,
    "country": "Argentina"
  },
  {
    "name": "R\u00edo Tercero",
    "lat": -32.17675,
    "lon": -64.11295,
    "country": "Argentina"
  },
  {
    "name": "R\u00edo Segundo",
    "lat": -31.6501,
    "lon": -63.91165,
    "country": "Argentina"
  },
  {
    "name": "R\u00edo Grande",
    "lat": -53.78773,
    "lon": -67.70975,
    "country": "Argentina"
  },
  {
    "name": "R\u00edo Gallegos",
    "lat": -51.62261,
    "lon": -69.21813,
    "country": "Argentina"
  },
  {
    "name": "R\u00edo Cuarto",
    "lat": -33.13044,
    "lon": -64.35272,
    "country": "Argentina"
  },
  {
    "name": "R\u00edo Ceballos",
    "lat": -31.1697,
    "lon": -64.3175,
    "country": "Argentina"
  },
  {
    "name": "Rawson",
    "lat": -43.30016,
    "lon": -65.10228,
    "country": "Argentina"
  },
  {
    "name": "Rafaela",
    "lat": -31.25033,
    "lon": -61.4867,
    "country": "Argentina"
  },
  {
    "name": "Quitilipi",
    "lat": -26.8708,
    "lon": -60.21537,
    "country": "Argentina"
  },
  {
    "name": "Punta Alta",
    "lat": -38.8805,
    "lon": -62.07503,
    "country": "Argentina"
  },
  {
    "name": "Puerto Madryn",
    "lat": -42.76848,
    "lon": -65.03827,
    "country": "Argentina"
  },
  {
    "name": "Presidencia Roque S\u00e1enz Pe\u00f1a",
    "lat": -26.79095,
    "lon": -60.44132,
    "country": "Argentina"
  },
  {
    "name": "Pocito",
    "lat": -31.68333,
    "lon": -68.58333,
    "country": "Argentina"
  },
  {
    "name": "Plottier",
    "lat": -38.96667,
    "lon": -68.23333,
    "country": "Argentina"
  },
  {
    "name": "Pergamino",
    "lat": -33.89101,
    "lon": -60.57462,
    "country": "Argentina"
  },
  {
    "name": "P\u00e9rez",
    "lat": -32.99835,
    "lon": -60.76791,
    "country": "Argentina"
  },
  {
    "name": "Paran\u00e1",
    "lat": -31.73271,
    "lon": -60.52897,
    "country": "Argentina"
  },
  {
    "name": "Palpal\u00e1",
    "lat": -24.25798,
    "lon": -65.21358,
    "country": "Argentina"
  },
  {
    "name": "Olavarr\u00eda",
    "lat": -36.89384,
    "lon": -60.32319,
    "country": "Argentina"
  },
  {
    "name": "Nueve de Julio",
    "lat": -35.44394,
    "lon": -60.88463,
    "country": "Argentina"
  },
  {
    "name": "Neuqu\u00e9n",
    "lat": -38.95161,
    "lon": -68.0591,
    "country": "Argentina"
  },
  {
    "name": "Morteros",
    "lat": -30.71066,
    "lon": -62.00714,
    "country": "Argentina"
  },
  {
    "name": "Monteros",
    "lat": -27.16825,
    "lon": -65.49892,
    "country": "Argentina"
  },
  {
    "name": "Mendoza",
    "lat": -32.89084,
    "lon": -68.82717,
    "country": "Argentina"
  },
  {
    "name": "Marcos Ju\u00e1rez",
    "lat": -32.6978,
    "lon": -62.10672,
    "country": "Argentina"
  },
  {
    "name": "Machagai",
    "lat": -26.92617,
    "lon": -60.04852,
    "country": "Argentina"
  },
  {
    "name": "Lincoln",
    "lat": -34.86819,
    "lon": -61.52929,
    "country": "Argentina"
  },
  {
    "name": "Libertador General San Mart\u00edn",
    "lat": -23.81305,
    "lon": -64.79353,
    "country": "Argentina"
  },
  {
    "name": "Las Bre\u00f1as",
    "lat": -27.08819,
    "lon": -61.08217,
    "country": "Argentina"
  },
  {
    "name": "La Rioja",
    "lat": -29.41105,
    "lon": -66.85067,
    "country": "Argentina"
  },
  {
    "name": "La Falda",
    "lat": -31.09321,
    "lon": -64.48448,
    "country": "Argentina"
  },
  {
    "name": "La Calera",
    "lat": -31.34582,
    "lon": -64.33849,
    "country": "Argentina"
  },
  {
    "name": "Laboulaye",
    "lat": -34.12688,
    "lon": -63.39083,
    "country": "Argentina"
  },
  {
    "name": "Jun\u00edn",
    "lat": -34.59391,
    "lon": -60.94644,
    "country": "Argentina"
  },
  {
    "name": "Joaqu\u00edn V. Gonz\u00e1lez",
    "lat": -25.11364,
    "lon": -64.12628,
    "country": "Argentina"
  },
  {
    "name": "Jes\u00fas Mar\u00eda",
    "lat": -30.98153,
    "lon": -64.09424,
    "country": "Argentina"
  },
  {
    "name": "Granadero Baigorria",
    "lat": -32.85683,
    "lon": -60.71754,
    "country": "Argentina"
  },
  {
    "name": "Gobernador G\u00e1lvez",
    "lat": -33.03016,
    "lon": -60.64045,
    "country": "Argentina"
  },
  {
    "name": "General Villegas",
    "lat": -35.03264,
    "lon": -63.01484,
    "country": "Argentina"
  },
  {
    "name": "General Roca",
    "lat": -39.03333,
    "lon": -67.58333,
    "country": "Argentina"
  },
  {
    "name": "General Pinedo",
    "lat": -27.32534,
    "lon": -61.28101,
    "country": "Argentina"
  },
  {
    "name": "General Pico",
    "lat": -35.6593,
    "lon": -63.75787,
    "country": "Argentina"
  },
  {
    "name": "General Mosconi",
    "lat": -22.59617,
    "lon": -63.811,
    "country": "Argentina"
  },
  {
    "name": "G\u00e1lvez",
    "lat": -32.02927,
    "lon": -61.22103,
    "country": "Argentina"
  },
  {
    "name": "Firmat",
    "lat": -33.45937,
    "lon": -61.4832,
    "country": "Argentina"
  },
  {
    "name": "Famaill\u00e1",
    "lat": -27.05452,
    "lon": -65.40189,
    "country": "Argentina"
  },
  {
    "name": "Esquel",
    "lat": -42.91147,
    "lon": -71.31947,
    "country": "Argentina"
  },
  {
    "name": "Esperanza",
    "lat": -31.4488,
    "lon": -60.93173,
    "country": "Argentina"
  },
  {
    "name": "Embarcaci\u00f3n",
    "lat": -23.21003,
    "lon": -64.09965,
    "country": "Argentina"
  },
  {
    "name": "Embalse",
    "lat": -32.20681,
    "lon": -64.40064,
    "country": "Argentina"
  },
  {
    "name": "El Bols\u00f3n",
    "lat": -41.96051,
    "lon": -71.53336,
    "country": "Argentina"
  },
  {
    "name": "Diamante",
    "lat": -32.0671,
    "lon": -60.64267,
    "country": "Argentina"
  },
  {
    "name": "De\u00e1n Funes",
    "lat": -30.42498,
    "lon": -64.35274,
    "country": "Argentina"
  },
  {
    "name": "Cutral-C\u00f3",
    "lat": -38.93424,
    "lon": -69.23052,
    "country": "Argentina"
  },
  {
    "name": "Cruz del Eje",
    "lat": -30.72644,
    "lon": -64.80387,
    "country": "Argentina"
  },
  {
    "name": "Crespo",
    "lat": -32.03077,
    "lon": -60.30619,
    "country": "Argentina"
  },
  {
    "name": "Cosqu\u00edn",
    "lat": -31.24525,
    "lon": -64.46574,
    "country": "Argentina"
  },
  {
    "name": "Coronel Su\u00e1rez",
    "lat": -37.45859,
    "lon": -61.93294,
    "country": "Argentina"
  },
  {
    "name": "Coronda",
    "lat": -31.97263,
    "lon": -60.91983,
    "country": "Argentina"
  },
  {
    "name": "C\u00f3rdoba",
    "lat": -31.4135,
    "lon": -64.18105,
    "country": "Argentina"
  },
  {
    "name": "Comodoro Rivadavia",
    "lat": -45.86256,
    "lon": -67.494,
    "country": "Argentina"
  },
  {
    "name": "Cipolletti",
    "lat": -38.93392,
    "lon": -67.99032,
    "country": "Argentina"
  },
  {
    "name": "Cinco Saltos",
    "lat": -38.82225,
    "lon": -68.06293,
    "country": "Argentina"
  },
  {
    "name": "Chivilcoy",
    "lat": -34.8969,
    "lon": -60.01909,
    "country": "Argentina"
  },
  {
    "name": "Chimbas",
    "lat": -31.49313,
    "lon": -68.53263,
    "country": "Argentina"
  },
  {
    "name": "Chilecito",
    "lat": -29.16195,
    "lon": -67.4974,
    "country": "Argentina"
  },
  {
    "name": "Charata",
    "lat": -27.21787,
    "lon": -61.18738,
    "country": "Argentina"
  },
  {
    "name": "Chacabuco",
    "lat": -34.64203,
    "lon": -60.47124,
    "country": "Argentina"
  },
  {
    "name": "Centenario",
    "lat": -38.82955,
    "lon": -68.1318,
    "country": "Argentina"
  },
  {
    "name": "Caucete",
    "lat": -31.6515,
    "lon": -68.28216,
    "country": "Argentina"
  },
  {
    "name": "Catriel",
    "lat": -37.87552,
    "lon": -67.79451,
    "country": "Argentina"
  },
  {
    "name": "Juan Jos\u00e9 Castelli",
    "lat": -25.9466,
    "lon": -60.62008,
    "country": "Argentina"
  },
  {
    "name": "Casilda",
    "lat": -33.04417,
    "lon": -61.16806,
    "country": "Argentina"
  },
  {
    "name": "Carcara\u00f1\u00e1",
    "lat": -32.85679,
    "lon": -61.15331,
    "country": "Argentina"
  },
  {
    "name": "Capit\u00e1n Berm\u00fadez",
    "lat": -32.82262,
    "lon": -60.71852,
    "country": "Argentina"
  },
  {
    "name": "Ca\u00f1ada de G\u00f3mez",
    "lat": -32.81636,
    "lon": -61.39493,
    "country": "Argentina"
  },
  {
    "name": "Caleta Olivia",
    "lat": -46.44785,
    "lon": -67.52274,
    "country": "Argentina"
  },
  {
    "name": "Bell Ville",
    "lat": -32.63021,
    "lon": -62.68883,
    "country": "Argentina"
  },
  {
    "name": "Bella Vista",
    "lat": -27.03424,
    "lon": -65.30196,
    "country": "Argentina"
  },
  {
    "name": "Bah\u00eda Blanca",
    "lat": -38.7176,
    "lon": -62.26545,
    "country": "Argentina"
  },
  {
    "name": "Arroyo Seco",
    "lat": -33.15489,
    "lon": -60.50863,
    "country": "Argentina"
  },
  {
    "name": "Arroyito",
    "lat": -31.41917,
    "lon": -63.05084,
    "country": "Argentina"
  },
  {
    "name": "Arrecifes",
    "lat": -34.06306,
    "lon": -60.10261,
    "country": "Argentina"
  },
  {
    "name": "A\u00f1atuya",
    "lat": -28.4602,
    "lon": -62.83354,
    "country": "Argentina"
  },
  {
    "name": "Alta Gracia",
    "lat": -31.64978,
    "lon": -64.42972,
    "country": "Argentina"
  },
  {
    "name": "Allen",
    "lat": -38.97736,
    "lon": -67.82714,
    "country": "Argentina"
  },
  {
    "name": "Alderetes",
    "lat": -26.81787,
    "lon": -65.14202,
    "country": "Argentina"
  },
  {
    "name": "Albard\u00f3n",
    "lat": -31.43722,
    "lon": -68.52556,
    "country": "Argentina"
  },
  {
    "name": "Aguilares",
    "lat": -27.4315,
    "lon": -65.61465,
    "country": "Argentina"
  },
  {
    "name": "Balvanera",
    "lat": -34.61032,
    "lon": -58.39766,
    "country": "Argentina"
  },
  {
    "name": "Villa Santa Rita",
    "lat": -34.61082,
    "lon": -58.481,
    "country": "Argentina"
  },
  {
    "name": "Villa Mercedes",
    "lat": -33.67571,
    "lon": -65.45783,
    "country": "Argentina"
  },
  {
    "name": "San Miguel",
    "lat": -34.54335,
    "lon": -58.71229,
    "country": "Argentina"
  },
  {
    "name": "San Carlos de Bariloche",
    "lat": -41.14557,
    "lon": -71.30822,
    "country": "Argentina"
  },
  {
    "name": "Adrogu\u00e9",
    "lat": -34.80041,
    "lon": -58.38384,
    "country": "Argentina"
  },
  {
    "name": "Ingeniero Pablo Nogu\u00e9s",
    "lat": -34.47775,
    "lon": -58.70652,
    "country": "Argentina"
  },
  {
    "name": "Villa Sarmiento",
    "lat": -34.63364,
    "lon": -58.57047,
    "country": "Argentina"
  },
  {
    "name": "Jos\u00e9 C. Paz",
    "lat": -34.51541,
    "lon": -58.76813,
    "country": "Argentina"
  },
  {
    "name": "Pago Pago",
    "lat": -14.27806,
    "lon": -170.7025,
    "country": "American Samoa"
  },
  {
    "name": "D\u00f6bling",
    "lat": 48.25,
    "lon": 16.33333,
    "country": "Austria"
  },
  {
    "name": "Wilten",
    "lat": 47.25829,
    "lon": 11.38808,
    "country": "Austria"
  },
  {
    "name": "Wiener Neustadt",
    "lat": 47.80485,
    "lon": 16.23196,
    "country": "Austria"
  },
  {
    "name": "Vienna",
    "lat": 48.20849,
    "lon": 16.37208,
    "country": "Austria"
  },
  {
    "name": "Wetzelsdorf",
    "lat": 47.05293,
    "lon": 15.39923,
    "country": "Austria"
  },
  {
    "name": "Wels",
    "lat": 48.16667,
    "lon": 14.03333,
    "country": "Austria"
  },
  {
    "name": "Villach",
    "lat": 46.61028,
    "lon": 13.85583,
    "country": "Austria"
  },
  {
    "name": "Telfs",
    "lat": 47.30707,
    "lon": 11.06817,
    "country": "Austria"
  },
  {
    "name": "Stra\u00dfgang",
    "lat": 47.03333,
    "lon": 15.4,
    "country": "Austria"
  },
  {
    "name": "Stockerau",
    "lat": 48.38333,
    "lon": 16.21667,
    "country": "Austria"
  },
  {
    "name": "Steyr",
    "lat": 48.04274,
    "lon": 14.42127,
    "country": "Austria"
  },
  {
    "name": "Simmering",
    "lat": 48.18333,
    "lon": 16.43333,
    "country": "Austria"
  },
  {
    "name": "Sankt P\u00f6lten",
    "lat": 48.2,
    "lon": 15.63333,
    "country": "Austria"
  },
  {
    "name": "Sankt Peter",
    "lat": 47.05,
    "lon": 15.46667,
    "country": "Austria"
  },
  {
    "name": "Sankt Peter",
    "lat": 46.62978,
    "lon": 14.34016,
    "country": "Austria"
  },
  {
    "name": "Sankt Martin",
    "lat": 46.61667,
    "lon": 14.28333,
    "country": "Austria"
  },
  {
    "name": "Salzburg",
    "lat": 47.79941,
    "lon": 13.04399,
    "country": "Austria"
  },
  {
    "name": "Saalfelden am Steinernen Meer",
    "lat": 47.42681,
    "lon": 12.848,
    "country": "Austria"
  },
  {
    "name": "Pradl",
    "lat": 47.26539,
    "lon": 11.4152,
    "country": "Austria"
  },
  {
    "name": "Perchtoldsdorf",
    "lat": 48.11935,
    "lon": 16.26607,
    "country": "Austria"
  },
  {
    "name": "Ottakring",
    "lat": 48.21667,
    "lon": 16.3,
    "country": "Austria"
  },
  {
    "name": "M\u00f6dling",
    "lat": 48.08605,
    "lon": 16.28921,
    "country": "Austria"
  },
  {
    "name": "Meidling",
    "lat": 48.16667,
    "lon": 16.33333,
    "country": "Austria"
  },
  {
    "name": "Lustenau",
    "lat": 47.42642,
    "lon": 9.65851,
    "country": "Austria"
  },
  {
    "name": "Linz",
    "lat": 48.30639,
    "lon": 14.28611,
    "country": "Austria"
  },
  {
    "name": "Klosterneuburg",
    "lat": 48.30521,
    "lon": 16.32522,
    "country": "Austria"
  },
  {
    "name": "Klagenfurt am W\u00f6rthersee",
    "lat": 46.62472,
    "lon": 14.30528,
    "country": "Austria"
  },
  {
    "name": "Innsbruck",
    "lat": 47.26266,
    "lon": 11.39454,
    "country": "Austria"
  },
  {
    "name": "Innere Stadt",
    "lat": 48.20906,
    "lon": 16.37135,
    "country": "Austria"
  },
  {
    "name": "Penzing",
    "lat": 48.2,
    "lon": 16.26667,
    "country": "Austria"
  },
  {
    "name": "H\u00f6tting",
    "lat": 47.26815,
    "lon": 11.36868,
    "country": "Austria"
  },
  {
    "name": "Hohenems",
    "lat": 47.36121,
    "lon": 9.68694,
    "country": "Austria"
  },
  {
    "name": "Hietzing",
    "lat": 48.18623,
    "lon": 16.2965,
    "country": "Austria"
  },
  {
    "name": "Hernals",
    "lat": 48.23333,
    "lon": 16.26667,
    "country": "Austria"
  },
  {
    "name": "Graz",
    "lat": 47.06667,
    "lon": 15.45,
    "country": "Austria"
  },
  {
    "name": "F\u00fcnfhaus",
    "lat": 48.19596,
    "lon": 16.3183,
    "country": "Austria"
  },
  {
    "name": "Floridsdorf",
    "lat": 48.25,
    "lon": 16.4,
    "country": "Austria"
  },
  {
    "name": "Feldkirch",
    "lat": 47.23306,
    "lon": 9.6,
    "country": "Austria"
  },
  {
    "name": "Essling",
    "lat": 48.21289,
    "lon": 16.52442,
    "country": "Austria"
  },
  {
    "name": "Eggenberg",
    "lat": 47.07,
    "lon": 15.39871,
    "country": "Austria"
  },
  {
    "name": "Dornbirn",
    "lat": 47.41427,
    "lon": 9.74195,
    "country": "Austria"
  },
  {
    "name": "Bregenz",
    "lat": 47.50311,
    "lon": 9.7471,
    "country": "Austria"
  },
  {
    "name": "Baden",
    "lat": 48.00543,
    "lon": 16.23264,
    "country": "Austria"
  },
  {
    "name": "Aspern",
    "lat": 48.21806,
    "lon": 16.48306,
    "country": "Austria"
  },
  {
    "name": "Amstetten",
    "lat": 48.1229,
    "lon": 14.87206,
    "country": "Austria"
  },
  {
    "name": "Favoriten",
    "lat": 48.16116,
    "lon": 16.38233,
    "country": "Austria"
  },
  {
    "name": "Donaustadt",
    "lat": 48.2333,
    "lon": 16.46002,
    "country": "Austria"
  },
  {
    "name": "Jakomini",
    "lat": 47.05441,
    "lon": 15.44984,
    "country": "Austria"
  },
  {
    "name": "Lend",
    "lat": 47.08256,
    "lon": 15.41589,
    "country": "Austria"
  },
  {
    "name": "Geidorf",
    "lat": 47.08393,
    "lon": 15.444,
    "country": "Austria"
  },
  {
    "name": "Sankt Leonhard",
    "lat": 47.06924,
    "lon": 15.45784,
    "country": "Austria"
  },
  {
    "name": "Andritz",
    "lat": 47.11387,
    "lon": 15.42348,
    "country": "Austria"
  },
  {
    "name": "Gries",
    "lat": 47.06236,
    "lon": 15.42421,
    "country": "Austria"
  },
  {
    "name": "W\u00e4hring",
    "lat": 48.22611,
    "lon": 16.34484,
    "country": "Austria"
  },
  {
    "name": "Landstra\u00dfe",
    "lat": 48.2019,
    "lon": 16.38792,
    "country": "Austria"
  },
  {
    "name": "Margareten",
    "lat": 48.1855,
    "lon": 16.35373,
    "country": "Austria"
  },
  {
    "name": "Mariahilf",
    "lat": 48.19571,
    "lon": 16.35215,
    "country": "Austria"
  },
  {
    "name": "Neubau",
    "lat": 48.20172,
    "lon": 16.34715,
    "country": "Austria"
  },
  {
    "name": "Josefstadt",
    "lat": 48.21243,
    "lon": 16.34549,
    "country": "Austria"
  },
  {
    "name": "Alsergrund",
    "lat": 48.22321,
    "lon": 16.35506,
    "country": "Austria"
  },
  {
    "name": "Brigittenau",
    "lat": 48.24275,
    "lon": 16.37551,
    "country": "Austria"
  },
  {
    "name": "Scarborough",
    "lat": -31.89578,
    "lon": 115.76431,
    "country": "Australia"
  },
  {
    "name": "Rockingham",
    "lat": -32.27682,
    "lon": 115.72978,
    "country": "Australia"
  },
  {
    "name": "Perth",
    "lat": -31.95224,
    "lon": 115.8614,
    "country": "Australia"
  },
  {
    "name": "Mount Isa",
    "lat": -20.72523,
    "lon": 139.49727,
    "country": "Australia"
  },
  {
    "name": "Morphett Vale",
    "lat": -35.13333,
    "lon": 138.51667,
    "country": "Australia"
  },
  {
    "name": "Mandurah",
    "lat": -32.5269,
    "lon": 115.7217,
    "country": "Australia"
  },
  {
    "name": "Kwinana",
    "lat": -32.23013,
    "lon": 115.78128,
    "country": "Australia"
  },
  {
    "name": "Gosnells",
    "lat": -32.081,
    "lon": 116.0054,
    "country": "Australia"
  },
  {
    "name": "Geraldton",
    "lat": -28.77897,
    "lon": 114.61459,
    "country": "Australia"
  },
  {
    "name": "Gawler",
    "lat": -34.60251,
    "lon": 138.74902,
    "country": "Australia"
  },
  {
    "name": "Darwin",
    "lat": -12.46113,
    "lon": 130.84185,
    "country": "Australia"
  },
  {
    "name": "Byford",
    "lat": -32.22099,
    "lon": 116.009,
    "country": "Australia"
  },
  {
    "name": "Busselton",
    "lat": -33.65249,
    "lon": 115.3455,
    "country": "Australia"
  },
  {
    "name": "Bunbury",
    "lat": -33.32711,
    "lon": 115.64137,
    "country": "Australia"
  },
  {
    "name": "Australind",
    "lat": -33.2792,
    "lon": 115.71504,
    "country": "Australia"
  },
  {
    "name": "Alice Springs",
    "lat": -23.69748,
    "lon": 133.88362,
    "country": "Australia"
  },
  {
    "name": "Albany",
    "lat": -35.02692,
    "lon": 117.88369,
    "country": "Australia"
  },
  {
    "name": "Adelaide",
    "lat": -34.92866,
    "lon": 138.59863,
    "country": "Australia"
  },
  {
    "name": "Yarraville",
    "lat": -37.81667,
    "lon": 144.9,
    "country": "Australia"
  },
  {
    "name": "Wollert",
    "lat": -37.58333,
    "lon": 145.03333,
    "country": "Australia"
  },
  {
    "name": "Wodonga",
    "lat": -36.12179,
    "lon": 146.88809,
    "country": "Australia"
  },
  {
    "name": "Wheelers Hill",
    "lat": -37.9,
    "lon": 145.18333,
    "country": "Australia"
  },
  {
    "name": "Westmead",
    "lat": -33.80383,
    "lon": 150.98768,
    "country": "Australia"
  },
  {
    "name": "Werribee",
    "lat": -37.9,
    "lon": 144.66667,
    "country": "Australia"
  },
  {
    "name": "Warwick",
    "lat": -28.21901,
    "lon": 152.03438,
    "country": "Australia"
  },
  {
    "name": "Warrnambool",
    "lat": -38.38176,
    "lon": 142.48799,
    "country": "Australia"
  },
  {
    "name": "Warragul",
    "lat": -38.15912,
    "lon": 145.93118,
    "country": "Australia"
  },
  {
    "name": "Wantirna South",
    "lat": -37.88333,
    "lon": 145.21667,
    "country": "Australia"
  },
  {
    "name": "Wangaratta",
    "lat": -36.35846,
    "lon": 146.32056,
    "country": "Australia"
  },
  {
    "name": "Wahroonga",
    "lat": -33.71816,
    "lon": 151.11561,
    "country": "Australia"
  },
  {
    "name": "Upper Coomera",
    "lat": -27.87683,
    "lon": 153.28572,
    "country": "Australia"
  },
  {
    "name": "Tuggeranong Administrative District",
    "lat": -35.41647,
    "lon": 149.06954,
    "country": "Australia"
  },
  {
    "name": "Truganina",
    "lat": -37.81667,
    "lon": 144.75,
    "country": "Australia"
  },
  {
    "name": "Traralgon",
    "lat": -38.19528,
    "lon": 146.5415,
    "country": "Australia"
  },
  {
    "name": "Townsville",
    "lat": -19.26639,
    "lon": 146.80569,
    "country": "Australia"
  },
  {
    "name": "Toowoomba",
    "lat": -27.56056,
    "lon": 151.95386,
    "country": "Australia"
  },
  {
    "name": "Thornbury",
    "lat": -37.75819,
    "lon": 145.00583,
    "country": "Australia"
  },
  {
    "name": "Thomastown",
    "lat": -37.68333,
    "lon": 145.01667,
    "country": "Australia"
  },
  {
    "name": "Templestowe",
    "lat": -37.75405,
    "lon": 145.14864,
    "country": "Australia"
  },
  {
    "name": "Tarneit",
    "lat": -37.83634,
    "lon": 144.65952,
    "country": "Australia"
  },
  {
    "name": "Taree",
    "lat": -31.91099,
    "lon": 152.45387,
    "country": "Australia"
  },
  {
    "name": "Tamworth",
    "lat": -31.09048,
    "lon": 150.92905,
    "country": "Australia"
  },
  {
    "name": "Sydney",
    "lat": -33.86785,
    "lon": 151.20732,
    "country": "Australia"
  },
  {
    "name": "Surry Hills",
    "lat": -33.88374,
    "lon": 151.21282,
    "country": "Australia"
  },
  {
    "name": "Surfers Paradise",
    "lat": -28.00274,
    "lon": 153.42999,
    "country": "Australia"
  },
  {
    "name": "Sunbury",
    "lat": -37.57742,
    "lon": 144.72607,
    "country": "Australia"
  },
  {
    "name": "Strathfield",
    "lat": -33.88096,
    "lon": 151.07986,
    "country": "Australia"
  },
  {
    "name": "Springvale",
    "lat": -37.94853,
    "lon": 145.15274,
    "country": "Australia"
  },
  {
    "name": "South Yarra",
    "lat": -37.83834,
    "lon": 144.99149,
    "country": "Australia"
  },
  {
    "name": "Southport",
    "lat": -27.96724,
    "lon": 153.39796,
    "country": "Australia"
  },
  {
    "name": "Shepparton",
    "lat": -36.38047,
    "lon": 145.39867,
    "country": "Australia"
  },
  {
    "name": "Seven Hills",
    "lat": -33.78333,
    "lon": 150.93333,
    "country": "Australia"
  },
  {
    "name": "Seaford",
    "lat": -38.1,
    "lon": 145.13333,
    "country": "Australia"
  },
  {
    "name": "Saint Kilda",
    "lat": -37.8676,
    "lon": 144.98099,
    "country": "Australia"
  },
  {
    "name": "Saint Ives",
    "lat": -33.72976,
    "lon": 151.15977,
    "country": "Australia"
  },
  {
    "name": "Saint Albans",
    "lat": -37.73333,
    "lon": 144.8,
    "country": "Australia"
  },
  {
    "name": "Ryde",
    "lat": -33.8188,
    "lon": 151.1062,
    "country": "Australia"
  },
  {
    "name": "Rowville",
    "lat": -37.93333,
    "lon": 145.23333,
    "country": "Australia"
  },
  {
    "name": "Rockhampton",
    "lat": -23.38032,
    "lon": 150.50595,
    "country": "Australia"
  },
  {
    "name": "Rockdale",
    "lat": -33.95,
    "lon": 151.13333,
    "country": "Australia"
  },
  {
    "name": "Ringwood",
    "lat": -37.81667,
    "lon": 145.23333,
    "country": "Australia"
  },
  {
    "name": "Richmond",
    "lat": -37.81819,
    "lon": 145.00176,
    "country": "Australia"
  },
  {
    "name": "Reservoir",
    "lat": -37.71667,
    "lon": 145.0,
    "country": "Australia"
  },
  {
    "name": "Quakers Hill",
    "lat": -33.73333,
    "lon": 150.88333,
    "country": "Australia"
  },
  {
    "name": "Preston",
    "lat": -37.75,
    "lon": 145.01667,
    "country": "Australia"
  },
  {
    "name": "Port Melbourne",
    "lat": -37.83961,
    "lon": 144.94228,
    "country": "Australia"
  },
  {
    "name": "Port Macquarie",
    "lat": -31.43084,
    "lon": 152.90894,
    "country": "Australia"
  },
  {
    "name": "Point Cook",
    "lat": -37.91482,
    "lon": 144.75088,
    "country": "Australia"
  },
  {
    "name": "Pascoe Vale",
    "lat": -37.73333,
    "lon": 144.93333,
    "country": "Australia"
  },
  {
    "name": "Palm Beach",
    "lat": -28.11694,
    "lon": 153.46584,
    "country": "Australia"
  },
  {
    "name": "Pakenham",
    "lat": -38.07018,
    "lon": 145.47411,
    "country": "Australia"
  },
  {
    "name": "Orange",
    "lat": -33.28397,
    "lon": 149.10018,
    "country": "Australia"
  },
  {
    "name": "Officer",
    "lat": -38.05916,
    "lon": 145.40947,
    "country": "Australia"
  },
  {
    "name": "North Melbourne",
    "lat": -37.79798,
    "lon": 144.94512,
    "country": "Australia"
  },
  {
    "name": "Northcote",
    "lat": -37.76667,
    "lon": 145.0,
    "country": "Australia"
  },
  {
    "name": "Noble Park",
    "lat": -37.96667,
    "lon": 145.16667,
    "country": "Australia"
  },
  {
    "name": "Newcastle",
    "lat": -32.92953,
    "lon": 151.7801,
    "country": "Australia"
  },
  {
    "name": "Nerang",
    "lat": -27.98941,
    "lon": 153.33633,
    "country": "Australia"
  },
  {
    "name": "Narre Warren",
    "lat": -38.03333,
    "lon": 145.3,
    "country": "Australia"
  },
  {
    "name": "Narangba",
    "lat": -27.20338,
    "lon": 152.95923,
    "country": "Australia"
  },
  {
    "name": "Mulgrave",
    "lat": -37.92845,
    "lon": 145.17708,
    "country": "Australia"
  },
  {
    "name": "Mount Waverley",
    "lat": -37.87709,
    "lon": 145.12939,
    "country": "Australia"
  },
  {
    "name": "Mount Martha",
    "lat": -38.26667,
    "lon": 145.01667,
    "country": "Australia"
  },
  {
    "name": "Mount Gambier",
    "lat": -37.8318,
    "lon": 140.77919,
    "country": "Australia"
  },
  {
    "name": "Mount Eliza",
    "lat": -38.18333,
    "lon": 145.08333,
    "country": "Australia"
  },
  {
    "name": "Mount Druitt",
    "lat": -33.76667,
    "lon": 150.81667,
    "country": "Australia"
  },
  {
    "name": "Mosman",
    "lat": -33.83902,
    "lon": 151.23956,
    "country": "Australia"
  },
  {
    "name": "Mornington",
    "lat": -38.21792,
    "lon": 145.03876,
    "country": "Australia"
  },
  {
    "name": "Morayfield",
    "lat": -27.10876,
    "lon": 152.94907,
    "country": "Australia"
  },
  {
    "name": "South Morang",
    "lat": -37.65,
    "lon": 145.1,
    "country": "Australia"
  },
  {
    "name": "Mooroolbark",
    "lat": -37.78247,
    "lon": 145.31682,
    "country": "Australia"
  },
  {
    "name": "Moonee Ponds",
    "lat": -37.76667,
    "lon": 144.91667,
    "country": "Australia"
  },
  {
    "name": "Mitcham",
    "lat": -37.81667,
    "lon": 145.2,
    "country": "Australia"
  },
  {
    "name": "Miranda",
    "lat": -34.03857,
    "lon": 151.10005,
    "country": "Australia"
  },
  {
    "name": "Mill Park",
    "lat": -37.66667,
    "lon": 145.06667,
    "country": "Australia"
  },
  {
    "name": "Mildura",
    "lat": -34.18551,
    "lon": 142.16251,
    "country": "Australia"
  },
  {
    "name": "Merrylands",
    "lat": -33.83333,
    "lon": 150.98333,
    "country": "Australia"
  },
  {
    "name": "Mernda",
    "lat": -37.60075,
    "lon": 145.09555,
    "country": "Australia"
  },
  {
    "name": "Melbourne",
    "lat": -37.814,
    "lon": 144.96332,
    "country": "Australia"
  },
  {
    "name": "Mascot",
    "lat": -33.92598,
    "lon": 151.19347,
    "country": "Australia"
  },
  {
    "name": "Maryborough",
    "lat": -25.54073,
    "lon": 152.70493,
    "country": "Australia"
  },
  {
    "name": "Marrickville",
    "lat": -33.90741,
    "lon": 151.15546,
    "country": "Australia"
  },
  {
    "name": "Maroubra",
    "lat": -33.95,
    "lon": 151.23333,
    "country": "Australia"
  },
  {
    "name": "Manly",
    "lat": -33.79798,
    "lon": 151.28826,
    "country": "Australia"
  },
  {
    "name": "Maitland",
    "lat": -32.73308,
    "lon": 151.5574,
    "country": "Australia"
  },
  {
    "name": "Mackay",
    "lat": -21.15345,
    "lon": 149.16554,
    "country": "Australia"
  },
  {
    "name": "Liverpool",
    "lat": -33.91938,
    "lon": 150.92588,
    "country": "Australia"
  },
  {
    "name": "Lilydale",
    "lat": -37.75,
    "lon": 145.35,
    "country": "Australia"
  },
  {
    "name": "Lidcombe",
    "lat": -33.86436,
    "lon": 151.0397,
    "country": "Australia"
  },
  {
    "name": "Launceston",
    "lat": -41.43876,
    "lon": 147.13467,
    "country": "Australia"
  },
  {
    "name": "Lara",
    "lat": -38.02388,
    "lon": 144.40617,
    "country": "Australia"
  },
  {
    "name": "Langwarrin",
    "lat": -38.16667,
    "lon": 145.16667,
    "country": "Australia"
  },
  {
    "name": "Lalor",
    "lat": -37.66667,
    "lon": 145.01667,
    "country": "Australia"
  },
  {
    "name": "Lakemba",
    "lat": -33.91972,
    "lon": 151.07592,
    "country": "Australia"
  },
  {
    "name": "Kogarah",
    "lat": -33.9681,
    "lon": 151.13564,
    "country": "Australia"
  },
  {
    "name": "Keysborough",
    "lat": -37.99116,
    "lon": 145.17385,
    "country": "Australia"
  },
  {
    "name": "Kew",
    "lat": -37.80639,
    "lon": 145.03086,
    "country": "Australia"
  },
  {
    "name": "Kensington",
    "lat": -33.92019,
    "lon": 151.22241,
    "country": "Australia"
  },
  {
    "name": "Hornsby",
    "lat": -33.70244,
    "lon": 151.09931,
    "country": "Australia"
  },
  {
    "name": "Hobart",
    "lat": -42.87936,
    "lon": 147.32941,
    "country": "Australia"
  },
  {
    "name": "Hawthorn South",
    "lat": -37.8329,
    "lon": 145.0367,
    "country": "Australia"
  },
  {
    "name": "Hawthorn",
    "lat": -37.81992,
    "lon": 145.0358,
    "country": "Australia"
  },
  {
    "name": "Hampton Park",
    "lat": -38.03333,
    "lon": 145.25,
    "country": "Australia"
  },
  {
    "name": "Griffith",
    "lat": -34.28853,
    "lon": 146.05093,
    "country": "Australia"
  },
  {
    "name": "Greenvale",
    "lat": -37.63333,
    "lon": 144.86667,
    "country": "Australia"
  },
  {
    "name": "Greensborough",
    "lat": -37.70462,
    "lon": 145.10302,
    "country": "Australia"
  },
  {
    "name": "Granville",
    "lat": -33.8406,
    "lon": 151.00748,
    "country": "Australia"
  },
  {
    "name": "Goulburn",
    "lat": -34.75155,
    "lon": 149.72086,
    "country": "Australia"
  },
  {
    "name": "Gold Coast",
    "lat": -28.00029,
    "lon": 153.43088,
    "country": "Australia"
  },
  {
    "name": "Glen Waverley",
    "lat": -37.87811,
    "lon": 145.16476,
    "country": "Australia"
  },
  {
    "name": "Glenroy",
    "lat": -37.7,
    "lon": 144.93333,
    "country": "Australia"
  },
  {
    "name": "Glen Iris",
    "lat": -37.86667,
    "lon": 145.06667,
    "country": "Australia"
  },
  {
    "name": "Glenferrie",
    "lat": -37.83333,
    "lon": 145.05,
    "country": "Australia"
  },
  {
    "name": "Gladstone",
    "lat": -23.84852,
    "lon": 151.25775,
    "country": "Australia"
  },
  {
    "name": "Geelong",
    "lat": -38.14711,
    "lon": 144.36069,
    "country": "Australia"
  },
  {
    "name": "Frankston East",
    "lat": -38.13333,
    "lon": 145.13333,
    "country": "Australia"
  },
  {
    "name": "Frankston",
    "lat": -38.14458,
    "lon": 145.12291,
    "country": "Australia"
  },
  {
    "name": "Footscray",
    "lat": -37.8,
    "lon": 144.9,
    "country": "Australia"
  },
  {
    "name": "Fairfield",
    "lat": -33.86667,
    "lon": 150.95,
    "country": "Australia"
  },
  {
    "name": "Essendon",
    "lat": -37.74981,
    "lon": 144.9109,
    "country": "Australia"
  },
  {
    "name": "Epping",
    "lat": -37.65,
    "lon": 145.03333,
    "country": "Australia"
  },
  {
    "name": "Epping",
    "lat": -33.77271,
    "lon": 151.08184,
    "country": "Australia"
  },
  {
    "name": "Engadine",
    "lat": -34.06564,
    "lon": 151.01266,
    "country": "Australia"
  },
  {
    "name": "Eltham",
    "lat": -37.73333,
    "lon": 145.15,
    "country": "Australia"
  },
  {
    "name": "Eight Mile Plains",
    "lat": -27.58333,
    "lon": 153.1,
    "country": "Australia"
  },
  {
    "name": "Eastwood",
    "lat": -33.79176,
    "lon": 151.08057,
    "country": "Australia"
  },
  {
    "name": "Earlwood",
    "lat": -33.9209,
    "lon": 151.12506,
    "country": "Australia"
  },
  {
    "name": "Dubbo",
    "lat": -32.24295,
    "lon": 148.60484,
    "country": "Australia"
  },
  {
    "name": "Doreen",
    "lat": -37.6,
    "lon": 145.15,
    "country": "Australia"
  },
  {
    "name": "Doncaster East",
    "lat": -37.78761,
    "lon": 145.14888,
    "country": "Australia"
  },
  {
    "name": "Doncaster",
    "lat": -37.78828,
    "lon": 145.12373,
    "country": "Australia"
  },
  {
    "name": "Deer Park",
    "lat": -37.76722,
    "lon": 144.76657,
    "country": "Australia"
  },
  {
    "name": "Deception Bay",
    "lat": -27.19354,
    "lon": 153.02631,
    "country": "Australia"
  },
  {
    "name": "Dandenong",
    "lat": -37.98333,
    "lon": 145.2,
    "country": "Australia"
  },
  {
    "name": "Croydon",
    "lat": -37.8,
    "lon": 145.28333,
    "country": "Australia"
  },
  {
    "name": "Cronulla",
    "lat": -34.06251,
    "lon": 151.14961,
    "country": "Australia"
  },
  {
    "name": "Cranbourne",
    "lat": -38.11342,
    "lon": 145.28326,
    "country": "Australia"
  },
  {
    "name": "Craigieburn",
    "lat": -37.6,
    "lon": 144.95,
    "country": "Australia"
  },
  {
    "name": "Corio",
    "lat": -38.08333,
    "lon": 144.38333,
    "country": "Australia"
  },
  {
    "name": "Coorparoo",
    "lat": -27.49325,
    "lon": 153.05826,
    "country": "Australia"
  },
  {
    "name": "Coogee",
    "lat": -33.9205,
    "lon": 151.25522,
    "country": "Australia"
  },
  {
    "name": "Coffs Harbour",
    "lat": -30.29626,
    "lon": 153.11351,
    "country": "Australia"
  },
  {
    "name": "Coburg",
    "lat": -37.75,
    "lon": 144.96667,
    "country": "Australia"
  },
  {
    "name": "Clayton",
    "lat": -37.91667,
    "lon": 145.11667,
    "country": "Australia"
  },
  {
    "name": "Wollongong",
    "lat": -34.424,
    "lon": 150.89345,
    "country": "Australia"
  },
  {
    "name": "Chatswood",
    "lat": -33.8,
    "lon": 151.18333,
    "country": "Australia"
  },
  {
    "name": "Cessnock",
    "lat": -32.83211,
    "lon": 151.35623,
    "country": "Australia"
  },
  {
    "name": "Caulfield North",
    "lat": -37.8739,
    "lon": 145.02485,
    "country": "Australia"
  },
  {
    "name": "Castle Hill",
    "lat": -33.73333,
    "lon": 151.0,
    "country": "Australia"
  },
  {
    "name": "Carrum Downs",
    "lat": -38.09968,
    "lon": 145.17248,
    "country": "Australia"
  },
  {
    "name": "Carnegie",
    "lat": -37.89359,
    "lon": 145.05534,
    "country": "Australia"
  },
  {
    "name": "Carlton",
    "lat": -37.8,
    "lon": 144.96667,
    "country": "Australia"
  },
  {
    "name": "Carlingford",
    "lat": -33.78269,
    "lon": 151.04888,
    "country": "Australia"
  },
  {
    "name": "Capalaba",
    "lat": -27.54333,
    "lon": 153.20287,
    "country": "Australia"
  },
  {
    "name": "Canberra",
    "lat": -35.28346,
    "lon": 149.12807,
    "country": "Australia"
  },
  {
    "name": "Camberwell",
    "lat": -37.84205,
    "lon": 145.0694,
    "country": "Australia"
  },
  {
    "name": "Cairns",
    "lat": -16.92366,
    "lon": 145.76613,
    "country": "Australia"
  },
  {
    "name": "Caboolture",
    "lat": -27.08465,
    "lon": 152.9511,
    "country": "Australia"
  },
  {
    "name": "Burwood",
    "lat": -33.88333,
    "lon": 151.1,
    "country": "Australia"
  },
  {
    "name": "Burnie",
    "lat": -41.05584,
    "lon": 145.90375,
    "country": "Australia"
  },
  {
    "name": "Bundaberg",
    "lat": -24.86621,
    "lon": 152.3479,
    "country": "Australia"
  },
  {
    "name": "Buderim",
    "lat": -26.68443,
    "lon": 153.05705,
    "country": "Australia"
  },
  {
    "name": "Brunswick",
    "lat": -37.76667,
    "lon": 144.96667,
    "country": "Australia"
  },
  {
    "name": "Broken Hill",
    "lat": -31.9652,
    "lon": 141.4512,
    "country": "Australia"
  },
  {
    "name": "Brisbane",
    "lat": -27.46794,
    "lon": 153.02809,
    "country": "Australia"
  },
  {
    "name": "Brighton",
    "lat": -37.90561,
    "lon": 145.00279,
    "country": "Australia"
  },
  {
    "name": "Boronia",
    "lat": -37.86667,
    "lon": 145.28333,
    "country": "Australia"
  },
  {
    "name": "Blacktown",
    "lat": -33.76667,
    "lon": 150.91667,
    "country": "Australia"
  },
  {
    "name": "Bexley",
    "lat": -33.95,
    "lon": 151.11667,
    "country": "Australia"
  },
  {
    "name": "Berwick",
    "lat": -38.03333,
    "lon": 145.35,
    "country": "Australia"
  },
  {
    "name": "Bentleigh East",
    "lat": -37.91928,
    "lon": 145.05301,
    "country": "Australia"
  },
  {
    "name": "Bentleigh",
    "lat": -37.91806,
    "lon": 145.03544,
    "country": "Australia"
  },
  {
    "name": "Bendigo",
    "lat": -36.75818,
    "lon": 144.28024,
    "country": "Australia"
  },
  {
    "name": "Baulkham Hills",
    "lat": -33.75881,
    "lon": 150.99292,
    "country": "Australia"
  },
  {
    "name": "Bathurst",
    "lat": -33.41665,
    "lon": 149.5806,
    "country": "Australia"
  },
  {
    "name": "Banora Point",
    "lat": -28.21298,
    "lon": 153.53634,
    "country": "Australia"
  },
  {
    "name": "Bankstown",
    "lat": -33.91667,
    "lon": 151.03333,
    "country": "Australia"
  },
  {
    "name": "Ballarat",
    "lat": -37.56622,
    "lon": 143.84957,
    "country": "Australia"
  },
  {
    "name": "Bairnsdale",
    "lat": -37.82289,
    "lon": 147.61041,
    "country": "Australia"
  },
  {
    "name": "Auburn",
    "lat": -33.85,
    "lon": 151.03333,
    "country": "Australia"
  },
  {
    "name": "Ashfield",
    "lat": -33.88834,
    "lon": 151.12274,
    "country": "Australia"
  },
  {
    "name": "Ascot Vale",
    "lat": -37.77988,
    "lon": 144.92276,
    "country": "Australia"
  },
  {
    "name": "Armidale",
    "lat": -30.50123,
    "lon": 151.66553,
    "country": "Australia"
  },
  {
    "name": "Albany Creek",
    "lat": -27.35364,
    "lon": 152.96848,
    "country": "Australia"
  },
  {
    "name": "Maroochydore",
    "lat": -26.66008,
    "lon": 153.09953,
    "country": "Australia"
  },
  {
    "name": "Cheltenham",
    "lat": -37.96944,
    "lon": 145.04806,
    "country": "Australia"
  },
  {
    "name": "Randwick",
    "lat": -33.91439,
    "lon": 151.24895,
    "country": "Australia"
  },
  {
    "name": "Dee Why",
    "lat": -33.7511,
    "lon": 151.28886,
    "country": "Australia"
  },
  {
    "name": "Umina Beach",
    "lat": -33.52314,
    "lon": 151.31325,
    "country": "Australia"
  },
  {
    "name": "Palmerston",
    "lat": -12.48602,
    "lon": 130.9833,
    "country": "Australia"
  },
  {
    "name": "Hervey Bay",
    "lat": -25.28762,
    "lon": 152.76936,
    "country": "Australia"
  },
  {
    "name": "Sydney Central Business District",
    "lat": -33.86482,
    "lon": 151.20773,
    "country": "Australia"
  },
  {
    "name": "Kingsford",
    "lat": -33.92399,
    "lon": 151.22749,
    "country": "Australia"
  },
  {
    "name": "Springfield Lakes",
    "lat": -27.66757,
    "lon": 152.92488,
    "country": "Australia"
  },
  {
    "name": "Bracken Ridge",
    "lat": -27.3171,
    "lon": 153.03097,
    "country": "Australia"
  },
  {
    "name": "Kallangur",
    "lat": -27.25204,
    "lon": 152.99226,
    "country": "Australia"
  },
  {
    "name": "North Lakes",
    "lat": -27.22426,
    "lon": 153.02075,
    "country": "Australia"
  },
  {
    "name": "The Gap",
    "lat": -27.44187,
    "lon": 152.93861,
    "country": "Australia"
  },
  {
    "name": "Caroline Springs",
    "lat": -37.74124,
    "lon": 144.73631,
    "country": "Australia"
  },
  {
    "name": "Hoppers Crossing",
    "lat": -37.88264,
    "lon": 144.7003,
    "country": "Australia"
  },
  {
    "name": "Logan City",
    "lat": -27.63917,
    "lon": 153.10944,
    "country": "Australia"
  },
  {
    "name": "Carindale",
    "lat": -27.50578,
    "lon": 153.10236,
    "country": "Australia"
  },
  {
    "name": "Parramatta",
    "lat": -33.8178,
    "lon": 151.00348,
    "country": "Australia"
  },
  {
    "name": "Ferntree Gully",
    "lat": -37.88461,
    "lon": 145.29539,
    "country": "Australia"
  },
  {
    "name": "Adelaide Hills",
    "lat": -34.91119,
    "lon": 138.70735,
    "country": "Australia"
  },
  {
    "name": "Canning Vale",
    "lat": -32.05799,
    "lon": 115.91814,
    "country": "Australia"
  },
  {
    "name": "Glenmore Park",
    "lat": -33.79068,
    "lon": 150.6693,
    "country": "Australia"
  },
  {
    "name": "Southbank",
    "lat": -37.8228,
    "lon": 144.96434,
    "country": "Australia"
  },
  {
    "name": "Docklands",
    "lat": -37.8149,
    "lon": 144.95052,
    "country": "Australia"
  },
  {
    "name": "Helensvale",
    "lat": -27.91828,
    "lon": 153.33275,
    "country": "Australia"
  },
  {
    "name": "Elwood",
    "lat": -37.88214,
    "lon": 144.98215,
    "country": "Australia"
  },
  {
    "name": "Balwyn North",
    "lat": -37.79086,
    "lon": 145.09386,
    "country": "Australia"
  },
  {
    "name": "Malvern East",
    "lat": -37.87397,
    "lon": 145.04253,
    "country": "Australia"
  },
  {
    "name": "Brighton East",
    "lat": -37.90232,
    "lon": 145.01734,
    "country": "Australia"
  },
  {
    "name": "Redbank Plains",
    "lat": -27.64613,
    "lon": 152.85965,
    "country": "Australia"
  },
  {
    "name": "Labrador",
    "lat": -27.94402,
    "lon": 153.39815,
    "country": "Australia"
  },
  {
    "name": "St Albans",
    "lat": -37.74496,
    "lon": 144.80049,
    "country": "Australia"
  },
  {
    "name": "Endeavour Hills",
    "lat": -37.97695,
    "lon": 145.25866,
    "country": "Australia"
  },
  {
    "name": "Kellyville",
    "lat": -33.71028,
    "lon": 150.95095,
    "country": "Australia"
  },
  {
    "name": "Taylors Lakes",
    "lat": -37.69863,
    "lon": 144.78631,
    "country": "Australia"
  },
  {
    "name": "Cherrybrook",
    "lat": -33.72197,
    "lon": 151.04607,
    "country": "Australia"
  },
  {
    "name": "Roxburgh Park",
    "lat": -37.62581,
    "lon": 144.92555,
    "country": "Australia"
  },
  {
    "name": "Prestons",
    "lat": -33.94185,
    "lon": 150.8717,
    "country": "Australia"
  },
  {
    "name": "Wyndham Vale",
    "lat": -37.89138,
    "lon": 144.62368,
    "country": "Australia"
  },
  {
    "name": "Ballajura",
    "lat": -31.84062,
    "lon": 115.89549,
    "country": "Australia"
  },
  {
    "name": "Willetton",
    "lat": -32.05251,
    "lon": 115.88782,
    "country": "Australia"
  },
  {
    "name": "Glenwood",
    "lat": -33.73333,
    "lon": 150.93284,
    "country": "Australia"
  },
  {
    "name": "Cabramatta",
    "lat": -33.89743,
    "lon": 150.93446,
    "country": "Australia"
  },
  {
    "name": "Campsie",
    "lat": -33.9125,
    "lon": 151.10279,
    "country": "Australia"
  },
  {
    "name": "Casula",
    "lat": -33.95222,
    "lon": 150.89949,
    "country": "Australia"
  },
  {
    "name": "Cranebrook",
    "lat": -33.7061,
    "lon": 150.7094,
    "country": "Australia"
  },
  {
    "name": "Greenacre",
    "lat": -33.90034,
    "lon": 151.05563,
    "country": "Australia"
  },
  {
    "name": "Greystanes",
    "lat": -33.82346,
    "lon": 150.94607,
    "country": "Australia"
  },
  {
    "name": "Ellenbrook",
    "lat": -31.76737,
    "lon": 115.96936,
    "country": "Australia"
  },
  {
    "name": "Alexandra Hills",
    "lat": -27.53221,
    "lon": 153.22889,
    "country": "Australia"
  },
  {
    "name": "Calamvale",
    "lat": -27.62329,
    "lon": 153.04785,
    "country": "Australia"
  },
  {
    "name": "Yagoona",
    "lat": -33.9049,
    "lon": 151.01996,
    "country": "Australia"
  },
  {
    "name": "Highton",
    "lat": -38.17058,
    "lon": 144.3114,
    "country": "Australia"
  },
  {
    "name": "Pacific Pines",
    "lat": -27.93994,
    "lon": 153.31436,
    "country": "Australia"
  },
  {
    "name": "Robina",
    "lat": -28.07071,
    "lon": 153.39329,
    "country": "Australia"
  },
  {
    "name": "Paralowie",
    "lat": -34.75705,
    "lon": 138.60819,
    "country": "Australia"
  },
  {
    "name": "Baldivis",
    "lat": -32.32889,
    "lon": 115.83047,
    "country": "Australia"
  },
  {
    "name": "Dianella",
    "lat": -31.88822,
    "lon": 115.87186,
    "country": "Australia"
  },
  {
    "name": "Duncraig",
    "lat": -31.83291,
    "lon": 115.7759,
    "country": "Australia"
  },
  {
    "name": "Morley",
    "lat": -31.88775,
    "lon": 115.9099,
    "country": "Australia"
  },
  {
    "name": "Thornlie",
    "lat": -32.06003,
    "lon": 115.955,
    "country": "Australia"
  },
  {
    "name": "Landsdale",
    "lat": -31.8075,
    "lon": 115.86599,
    "country": "Australia"
  },
  {
    "name": "Punchbowl",
    "lat": -33.92893,
    "lon": 151.05111,
    "country": "Australia"
  },
  {
    "name": "Parafield Gardens",
    "lat": -34.78254,
    "lon": 138.61077,
    "country": "Australia"
  },
  {
    "name": "Hillside",
    "lat": -37.69047,
    "lon": 144.74172,
    "country": "Australia"
  },
  {
    "name": "St Clair",
    "lat": -33.79728,
    "lon": 150.7847,
    "country": "Australia"
  },
  {
    "name": "Kirwan",
    "lat": -19.30323,
    "lon": 146.72531,
    "country": "Australia"
  },
  {
    "name": "Bundoora",
    "lat": -37.69825,
    "lon": 145.05967,
    "country": "Australia"
  },
  {
    "name": "Forest Lake",
    "lat": -27.62563,
    "lon": 152.96883,
    "country": "Australia"
  },
  {
    "name": "Sunnybank Hills",
    "lat": -27.61025,
    "lon": 153.05388,
    "country": "Australia"
  },
  {
    "name": "Rochedale South",
    "lat": -27.59521,
    "lon": 153.12332,
    "country": "Australia"
  },
  {
    "name": "Keilor East",
    "lat": -37.73261,
    "lon": 144.86504,
    "country": "Australia"
  },
  {
    "name": "Cranbourne East",
    "lat": -38.11531,
    "lon": 145.29814,
    "country": "Australia"
  },
  {
    "name": "Cranbourne North",
    "lat": -38.07758,
    "lon": 145.29871,
    "country": "Australia"
  },
  {
    "name": "Cranbourne West",
    "lat": -38.0965,
    "lon": 145.26707,
    "country": "Australia"
  },
  {
    "name": "Narre Warren South",
    "lat": -38.04369,
    "lon": 145.2923,
    "country": "Australia"
  },
  {
    "name": "Dandenong North",
    "lat": -37.96649,
    "lon": 145.2081,
    "country": "Australia"
  },
  {
    "name": "Frankston South",
    "lat": -38.16604,
    "lon": 145.13643,
    "country": "Australia"
  },
  {
    "name": "Sunshine West",
    "lat": -37.79117,
    "lon": 144.81637,
    "country": "Australia"
  },
  {
    "name": "Altona Meadows",
    "lat": -37.88413,
    "lon": 144.78367,
    "country": "Australia"
  },
  {
    "name": "Taylors Hill",
    "lat": -37.70988,
    "lon": 144.75483,
    "country": "Australia"
  },
  {
    "name": "Hurstville",
    "lat": -33.9677,
    "lon": 151.10149,
    "country": "Australia"
  },
  {
    "name": "West Pennant Hills",
    "lat": -33.7457,
    "lon": 151.04764,
    "country": "Australia"
  },
  {
    "name": "Melbourne City Centre",
    "lat": -37.81501,
    "lon": 144.96657,
    "country": "Australia"
  },
  {
    "name": "Adelaide city centre",
    "lat": -34.92873,
    "lon": 138.60334,
    "country": "Australia"
  },
  {
    "name": "Wollongong city centre",
    "lat": -34.4279,
    "lon": 150.89268,
    "country": "Australia"
  },
  {
    "name": "Glen Waverly",
    "lat": -37.8744,
    "lon": 145.16689,
    "country": "Australia"
  },
  {
    "name": "Tanki Leendert",
    "lat": 12.53914,
    "lon": -70.02004,
    "country": "Aruba"
  },
  {
    "name": "San Nicolas",
    "lat": 12.43624,
    "lon": -69.90713,
    "country": "Aruba"
  },
  {
    "name": "Oranjestad",
    "lat": 12.52398,
    "lon": -70.02703,
    "country": "Aruba"
  },
  {
    "name": "Noord",
    "lat": 12.56596,
    "lon": -70.03198,
    "country": "Aruba"
  },
  {
    "name": "Mariehamn",
    "lat": 60.09726,
    "lon": 19.93481,
    "country": "Aland Islands"
  },
  {
    "name": "Xankandi",
    "lat": 39.8177,
    "lon": 46.7528,
    "country": "Azerbaijan"
  },
  {
    "name": "\u018fhm\u0259db\u0259yli",
    "lat": 39.88074,
    "lon": 48.39158,
    "country": "Azerbaijan"
  },
  {
    "name": "\u015eu\u015fa",
    "lat": 39.76006,
    "lon": 46.74989,
    "country": "Azerbaijan"
  },
  {
    "name": "Salyan",
    "lat": 39.59621,
    "lon": 48.98479,
    "country": "Azerbaijan"
  },
  {
    "name": "Saatl\u0131",
    "lat": 39.93214,
    "lon": 48.36892,
    "country": "Azerbaijan"
  },
  {
    "name": "Neft\u00e7ala",
    "lat": 39.3768,
    "lon": 49.247,
    "country": "Azerbaijan"
  },
  {
    "name": "Nax\u00e7\u0131van",
    "lat": 39.20889,
    "lon": 45.41222,
    "country": "Azerbaijan"
  },
  {
    "name": "Lerik",
    "lat": 38.77388,
    "lon": 48.41497,
    "country": "Azerbaijan"
  },
  {
    "name": "Lankaran",
    "lat": 38.75428,
    "lon": 48.85062,
    "country": "Azerbaijan"
  },
  {
    "name": "Imishli",
    "lat": 39.87095,
    "lon": 48.05995,
    "country": "Azerbaijan"
  },
  {
    "name": "Fizuli",
    "lat": 39.60094,
    "lon": 47.14529,
    "country": "Azerbaijan"
  },
  {
    "name": "Jalilabad",
    "lat": 39.20963,
    "lon": 48.49186,
    "country": "Azerbaijan"
  },
  {
    "name": "Pushkino",
    "lat": 39.45833,
    "lon": 48.545,
    "country": "Azerbaijan"
  },
  {
    "name": "Beylagan",
    "lat": 39.77556,
    "lon": 47.61861,
    "country": "Azerbaijan"
  },
  {
    "name": "Astara",
    "lat": 38.45598,
    "lon": 48.87498,
    "country": "Azerbaijan"
  },
  {
    "name": "\u015eirvan",
    "lat": 39.93778,
    "lon": 48.929,
    "country": "Azerbaijan"
  },
  {
    "name": "A\u011fdam",
    "lat": 39.99096,
    "lon": 46.92736,
    "country": "Azerbaijan"
  },
  {
    "name": "Zaqatala",
    "lat": 41.6316,
    "lon": 46.64479,
    "country": "Azerbaijan"
  },
  {
    "name": "Zabrat",
    "lat": 40.47746,
    "lon": 49.94174,
    "country": "Azerbaijan"
  },
  {
    "name": "Yevlakh",
    "lat": 40.61832,
    "lon": 47.15014,
    "country": "Azerbaijan"
  },
  {
    "name": "G\u00f6yg\u00f6l",
    "lat": 40.58584,
    "lon": 46.3189,
    "country": "Azerbaijan"
  },
  {
    "name": "Xa\u00e7maz",
    "lat": 41.46426,
    "lon": 48.80565,
    "country": "Azerbaijan"
  },
  {
    "name": "Ujar",
    "lat": 40.51902,
    "lon": 47.65423,
    "country": "Azerbaijan"
  },
  {
    "name": "Tovuz",
    "lat": 40.99249,
    "lon": 45.62838,
    "country": "Azerbaijan"
  },
  {
    "name": "Terter",
    "lat": 40.34201,
    "lon": 46.93161,
    "country": "Azerbaijan"
  },
  {
    "name": "Sumqay\u0131t",
    "lat": 40.58972,
    "lon": 49.66861,
    "country": "Azerbaijan"
  },
  {
    "name": "Qara\u00e7uxur",
    "lat": 40.39667,
    "lon": 49.97361,
    "country": "Azerbaijan"
  },
  {
    "name": "Shamkhor",
    "lat": 40.82975,
    "lon": 46.0178,
    "country": "Azerbaijan"
  },
  {
    "name": "Shamakhi",
    "lat": 40.63141,
    "lon": 48.64137,
    "country": "Azerbaijan"
  },
  {
    "name": "Sheki",
    "lat": 41.19194,
    "lon": 47.17056,
    "country": "Azerbaijan"
  },
  {
    "name": "Sabun\u00e7u",
    "lat": 40.4425,
    "lon": 49.94806,
    "country": "Azerbaijan"
  },
  {
    "name": "Sabirabad",
    "lat": 40.00869,
    "lon": 48.47701,
    "country": "Azerbaijan"
  },
  {
    "name": "Qusar",
    "lat": 41.4275,
    "lon": 48.4302,
    "country": "Azerbaijan"
  },
  {
    "name": "Quba",
    "lat": 41.36108,
    "lon": 48.51341,
    "country": "Azerbaijan"
  },
  {
    "name": "Hac\u0131qabul",
    "lat": 40.03874,
    "lon": 48.94286,
    "country": "Azerbaijan"
  },
  {
    "name": "Qazax",
    "lat": 41.09246,
    "lon": 45.36561,
    "country": "Azerbaijan"
  },
  {
    "name": "Hac\u0131 Zeynalabdin",
    "lat": 40.62333,
    "lon": 49.55861,
    "country": "Azerbaijan"
  },
  {
    "name": "Mingelchaur",
    "lat": 40.76395,
    "lon": 47.05953,
    "country": "Azerbaijan"
  },
  {
    "name": "Ma\u015fta\u011fa",
    "lat": 40.52983,
    "lon": 50.00616,
    "country": "Azerbaijan"
  },
  {
    "name": "Mardakan",
    "lat": 40.49182,
    "lon": 50.14292,
    "country": "Azerbaijan"
  },
  {
    "name": "Lokbatan",
    "lat": 40.3256,
    "lon": 49.73376,
    "country": "Azerbaijan"
  },
  {
    "name": "Kyurdarmir",
    "lat": 40.34257,
    "lon": 48.15649,
    "country": "Azerbaijan"
  },
  {
    "name": "Khirdalan",
    "lat": 40.44808,
    "lon": 49.75502,
    "country": "Azerbaijan"
  },
  {
    "name": "\u0130smay\u0131ll\u0131",
    "lat": 40.78485,
    "lon": 48.15141,
    "country": "Azerbaijan"
  },
  {
    "name": "Yeni Suraxan\u0131",
    "lat": 40.43026,
    "lon": 50.03598,
    "country": "Azerbaijan"
  },
  {
    "name": "G\u00f6y\u00e7ay",
    "lat": 40.65055,
    "lon": 47.74219,
    "country": "Azerbaijan"
  },
  {
    "name": "H\u00f6vsan",
    "lat": 40.37444,
    "lon": 50.08528,
    "country": "Azerbaijan"
  },
  {
    "name": "Ganja",
    "lat": 40.68278,
    "lon": 46.36056,
    "country": "Azerbaijan"
  },
  {
    "name": "Divichibazar",
    "lat": 41.20117,
    "lon": 48.98712,
    "country": "Azerbaijan"
  },
  {
    "name": "Buzovna",
    "lat": 40.51903,
    "lon": 50.11438,
    "country": "Azerbaijan"
  },
  {
    "name": "Biny Selo",
    "lat": 40.45076,
    "lon": 50.08686,
    "country": "Azerbaijan"
  },
  {
    "name": "Barda",
    "lat": 40.37577,
    "lon": 47.12619,
    "country": "Azerbaijan"
  },
  {
    "name": "Bilajari",
    "lat": 40.4444,
    "lon": 49.80566,
    "country": "Azerbaijan"
  },
  {
    "name": "Baku",
    "lat": 40.37767,
    "lon": 49.89201,
    "country": "Azerbaijan"
  },
  {
    "name": "Amirdzhan",
    "lat": 40.42639,
    "lon": 49.98361,
    "country": "Azerbaijan"
  },
  {
    "name": "Aghsu",
    "lat": 40.57028,
    "lon": 48.40087,
    "country": "Azerbaijan"
  },
  {
    "name": "A\u011fda\u015f",
    "lat": 40.64699,
    "lon": 47.4738,
    "country": "Azerbaijan"
  },
  {
    "name": "Agdzhabedy",
    "lat": 40.05015,
    "lon": 47.45937,
    "country": "Azerbaijan"
  },
  {
    "name": "Bak\u0131xanov",
    "lat": 40.41894,
    "lon": 49.96693,
    "country": "Azerbaijan"
  },
  {
    "name": "Zenica",
    "lat": 44.20169,
    "lon": 17.90397,
    "country": "Bosnia and Herzegovina"
  },
  {
    "name": "Visoko",
    "lat": 43.98889,
    "lon": 18.17806,
    "country": "Bosnia and Herzegovina"
  },
  {
    "name": "Velika Kladu\u0161a",
    "lat": 45.18497,
    "lon": 15.80579,
    "country": "Bosnia and Herzegovina"
  },
  {
    "name": "Tuzla",
    "lat": 44.53842,
    "lon": 18.66709,
    "country": "Bosnia and Herzegovina"
  },
  {
    "name": "Trebinje",
    "lat": 42.71197,
    "lon": 18.34362,
    "country": "Bosnia and Herzegovina"
  },
  {
    "name": "Travnik",
    "lat": 44.22637,
    "lon": 17.66583,
    "country": "Bosnia and Herzegovina"
  },
  {
    "name": "Sarajevo",
    "lat": 43.84864,
    "lon": 18.35644,
    "country": "Bosnia and Herzegovina"
  },
  {
    "name": "Prijedor",
    "lat": 44.97991,
    "lon": 16.71401,
    "country": "Bosnia and Herzegovina"
  },
  {
    "name": "Mostar",
    "lat": 43.34333,
    "lon": 17.80806,
    "country": "Bosnia and Herzegovina"
  },
  {
    "name": "Lukavac",
    "lat": 44.54245,
    "lon": 18.52618,
    "country": "Bosnia and Herzegovina"
  },
  {
    "name": "Ilid\u017ea",
    "lat": 43.83148,
    "lon": 18.30697,
    "country": "Bosnia and Herzegovina"
  },
  {
    "name": "Grada\u010dac",
    "lat": 44.87851,
    "lon": 18.42764,
    "country": "Bosnia and Herzegovina"
  },
  {
    "name": "Gra\u010danica",
    "lat": 44.70307,
    "lon": 18.3101,
    "country": "Bosnia and Herzegovina"
  },
  {
    "name": "Gora\u017ede",
    "lat": 43.66795,
    "lon": 18.97564,
    "country": "Bosnia and Herzegovina"
  },
  {
    "name": "Doboj",
    "lat": 44.73179,
    "lon": 18.08698,
    "country": "Bosnia and Herzegovina"
  },
  {
    "name": "Cazin",
    "lat": 44.96694,
    "lon": 15.94306,
    "country": "Bosnia and Herzegovina"
  },
  {
    "name": "Bugojno",
    "lat": 44.05722,
    "lon": 17.45083,
    "country": "Bosnia and Herzegovina"
  },
  {
    "name": "Br\u010dko",
    "lat": 44.86995,
    "lon": 18.81012,
    "country": "Bosnia and Herzegovina"
  },
  {
    "name": "Bosanska Krupa",
    "lat": 44.8825,
    "lon": 16.15139,
    "country": "Bosnia and Herzegovina"
  },
  {
    "name": "Bijeljina",
    "lat": 44.75874,
    "lon": 19.21437,
    "country": "Bosnia and Herzegovina"
  },
  {
    "name": "Biha\u0107",
    "lat": 44.81694,
    "lon": 15.87083,
    "country": "Bosnia and Herzegovina"
  },
  {
    "name": "Banja Luka",
    "lat": 44.77842,
    "lon": 17.19386,
    "country": "Bosnia and Herzegovina"
  },
  {
    "name": "Konjic",
    "lat": 43.65126,
    "lon": 17.96082,
    "country": "Bosnia and Herzegovina"
  },
  {
    "name": "Bridgetown",
    "lat": 13.10732,
    "lon": -59.62021,
    "country": "Barbados"
  },
  {
    "name": "Th\u0101kurgaon",
    "lat": 26.03097,
    "lon": 88.46989,
    "country": "Bangladesh"
  },
  {
    "name": "Tekn\u0101f",
    "lat": 20.85829,
    "lon": 92.29773,
    "country": "Bangladesh"
  },
  {
    "name": "Tungi",
    "lat": 23.89154,
    "lon": 90.40232,
    "country": "Bangladesh"
  },
  {
    "name": "Sylhet",
    "lat": 24.89904,
    "lon": 91.87198,
    "country": "Bangladesh"
  },
  {
    "name": "Doh\u0101r",
    "lat": 23.59311,
    "lon": 90.14251,
    "country": "Bangladesh"
  },